id,lng,lat,name,cityname,province,count
0,114.356753,30.554571,武汉大学图书馆医学分馆,武汉市,湖北省,1
1,114.329738,30.556129,湖北省图书馆,武汉市,湖北省,1
2,114.362712,30.535956,武汉大学文理图书馆,武汉市,湖北省,1
3,114.361341,30.528984,武汉大学信息学部图书馆,武汉市,湖北省,1
4,114.344127,30.546845,24小时自助图书馆(鹰台路步行街),武汉市,湖北省,1
5,114.361465,30.543853,武汉大学图书馆工学分馆,武汉市,湖北省,1
6,114.360716,30.520017,华中师范大学图书馆,武汉市,湖北省,1
7,114.353908,30.519158,武汉理工大学东区图书馆,武汉市,湖北省,1
8,114.334603,30.57873,湖北大学图书馆,武汉市,湖北省,1
9,114.347934,30.538523,湖北省科学图书馆,武汉市,湖北省,1
10,114.342068,30.554355,武汉地铁自助图书馆,武汉市,湖北省,1
11,114.363697,30.540086,武汉大学早期建筑图书馆,武汉市,湖北省,1
12,114.330906,30.555658,湖北省图书馆24小时自助图书馆,武汉市,湖北省,1
13,114.309739,30.552163,云曰书馆,武汉市,湖北省,1
14,114.339391,30.544192,湖北省科技文献中心阅览室,武汉市,湖北省,1
15,114.347934,30.538526,中国科学院武汉图书馆,武汉市,湖北省,1
16,114.34779,30.5226,武汉理工大学图书馆,武汉市,湖北省,1
17,114.347696,30.522655,武汉理工大学西区图书馆,武汉市,湖北省,1
18,114.399349,30.518583,中国地质大学西区图书馆,武汉市,湖北省,1
19,114.306663,30.546108,武汉市武昌区图书馆,武汉市,湖北省,1
20,114.317787,30.516489,书画阅览,武汉市,湖北省,1
21,114.304257,30.54022,24小时自助图书馆(体育街),武汉市,湖北省,1
22,114.328351,30.50415,洪山区图书馆,武汉市,湖北省,1
23,114.35375,30.519141,武汉理工大学马房山校区东院图书馆,武汉市,湖北省,1
24,114.371654,30.537071,武汉大学枫园阅览室,武汉市,湖北省,1
25,114.281809,30.603064,武汉图书馆,武汉市,湖北省,1
26,114.333601,30.509736,武汉理工大学南湖新校区图书馆,武汉市,湖北省,1
27,114.294441,30.582595,武汉市少年儿童图书馆,武汉市,湖北省,1
28,114.373129,30.578505,武汉纺织大学东湖校区图书馆(求知路),武汉市,湖北省,1
29,114.308362,30.509387,红旗·九里少儿图书馆,武汉市,湖北省,1
30,114.291664,30.583483,江岸区图书馆,武汉市,湖北省,1
31,114.314003,30.538707,中南财经政法大学首义校区MBA学院图书馆,武汉市,湖北省,1
32,114.316304,30.532624,武汉地铁自助图书馆,武汉市,湖北省,1
33,114.313046,30.536828,中南财经政法大学图书馆,武汉市,湖北省,1
34,114.327644,30.503395,悠贝亲子图书馆,武汉市,湖北省,1
35,114.401543,30.492729,清觅自习室,武汉市,湖北省,1
36,114.357673,30.604761,武汉理工大学余家头校区图书馆,武汉市,湖北省,1
37,114.310387,30.610705,悠贝绘本馆图书馆(武汉天地壹方购物中心店),武汉市,湖北省,1
38,114.286523,30.588194,24小时自助图书馆(解放大道),武汉市,湖北省,1
39,114.366238,30.524329,武汉电力职业技术学院图书馆(暂停营业),武汉市,湖北省,1
40,114.343919,30.51296,武汉理工大学图书馆信息分馆,武汉市,湖北省,1
41,114.339376,30.54418,湖北科教大厦-阅览室,武汉市,湖北省,1
42,114.391221,30.502581,武汉工程大学图书馆,武汉市,湖北省,1
43,114.292513,30.490587,湖北省图书馆(复地悦城分馆),武汉市,湖北省,1
44,114.336416,30.498332,24小时自助图书馆(书城路),武汉市,湖北省,1
45,114.357395,30.471634,华中农业大学图书馆,武汉市,湖北省,1
46,114.291554,30.583407,江岸区少儿图书馆,武汉市,湖北省,1
47,114.389608,30.605656,武汉地铁自助图书馆,武汉市,湖北省,1
48,114.412059,30.512715,华中科技大学图书馆(新馆),武汉市,湖北省,1
49,114.277952,30.627575,汉口图书大世界,武汉市,湖北省,1
50,114.30726,30.480019,湖北工业大学图书馆,武汉市,湖北省,1
51,114.257519,30.569703,24小时自助图书馆,武汉市,湖北省,1
52,114.3482,30.58525,武汉铁路局党校-图书馆,武汉市,湖北省,1
53,114.278221,30.549469,24小时自助图书馆(拦江路),武汉市,湖北省,1
54,114.397415,30.494097,24小时自助图书馆(民族大道),武汉市,湖北省,1
55,114.391669,30.487097,中南民族大学图书馆,武汉市,湖北省,1
56,114.259196,30.547268,翠微新城社区图书阅览室,武汉市,湖北省,1
57,114.286092,30.481194,武昌工学院图书馆,武汉市,湖北省,1
58,114.270774,30.60313,江汉区图书馆(暂停营业),武汉市,湖北省,1
59,114.385001,30.473913,中南财经政法大学南湖校区图书馆,武汉市,湖北省,1
60,114.291085,30.613256,小钰米少儿英文图书馆,武汉市,湖北省,1
61,114.369333,30.623827,武汉科技大学图书馆(武冶小区东南),武汉市,湖北省,1
62,114.370623,30.511923,24小时自助图书馆,武汉市,湖北省,1
63,114.293162,30.535658,武汉大学医学职业技术学院图书馆,武汉市,湖北省,1
64,114.411889,30.51201,华中科技大学图书馆(老馆)(暂停营业),武汉市,湖北省,1
65,114.425766,30.586219,武汉城市学院图书馆,武汉市,湖北省,1
66,114.327542,30.504204,24小时自助图书馆,武汉市,湖北省,1
67,114.303383,30.604252,武汉市少儿图书馆(四唯路分馆),武汉市,湖北省,1
68,114.368568,30.584002,武汉地铁自助图书馆(铁机路地铁站点),武汉市,湖北省,1
69,114.260437,30.54664,武汉归元正藏图书馆,武汉市,湖北省,1
70,114.298985,30.515716,湖北财税职业学院图书馆,武汉市,湖北省,1
71,114.392317,30.487934,中南民族大学北书院,武汉市,湖北省,1
72,114.372601,30.508816,湖北交通职业技术学院图书馆,武汉市,湖北省,1
73,114.291663,30.583469,江岸区少年儿童图书馆,武汉市,湖北省,1
74,114.362895,30.535781,武汉大学珞珈文库,武汉市,湖北省,1
75,114.292104,30.567028,24小时自助图书馆(沿江大道),武汉市,湖北省,1
76,114.377858,30.500553,湖北商贸学院图书馆,武汉市,湖北省,1
77,114.260412,30.581152,华中科技大学同济医学院图书馆,武汉市,湖北省,1
78,114.389125,30.632071,武汉市青山区图书馆,武汉市,湖北省,1
79,114.2827,30.603292,24小时自助图书馆(建设大道),武汉市,湖北省,1
80,114.37425,30.627781,乌龟国会员制家庭图书馆,武汉市,湖北省,1
81,114.432433,30.510472,华中科技大学东校区图书馆,武汉市,湖北省,1
82,114.399082,30.485908,武汉纺织大学图书馆,武汉市,湖北省,1
83,114.356519,30.525407,东境声音图书馆,武汉市,湖北省,1
84,114.406142,30.474185,24小时自助图书馆(软件园东路),武汉市,湖北省,1
85,114.273476,30.45886,武汉工商学院图书馆,武汉市,湖北省,1
86,114.344007,30.512915,武汉理工大学鉴湖校区图书馆信息分馆,武汉市,湖北省,1
87,114.440597,30.49366,文华学院图书馆,武汉市,湖北省,1
88,114.300965,30.617247,加州幼儿园-图书馆,武汉市,湖北省,1
89,114.205167,30.552129,人信汇海豚儿童图书馆,武汉市,湖北省,1
90,114.327176,30.577784,武汉航海职业技术学院图书馆(暂停营业),武汉市,湖北省,1
91,114.400081,30.457421,书小鱼·共享图书馆,武汉市,湖北省,1
92,114.206903,30.505149,悠贝亲子图书馆(经开永旺美吉姆馆),武汉市,湖北省,1
93,114.413354,30.484544,武汉职业技术学院东区图书馆,武汉市,湖北省,1
94,114.262545,30.58468,万松街社区图书室,武汉市,湖北省,1
95,114.433128,30.460711,武汉工程大学流芳校区图书馆,武汉市,湖北省,1
96,114.379715,30.474338,中南财经政法大学南湖校区图书馆(明德路),武汉市,湖北省,1
97,114.428752,30.443539,武汉软件工程职业学院图书馆,武汉市,湖北省,1
98,114.247874,30.550683,五园里社区图书阅览室,武汉市,湖北省,1
99,114.303725,30.694442,悠贝亲子图书馆·盘龙城万达馆,武汉市,湖北省,1
100,114.361316,30.418056,武昌理工学院图书馆,武汉市,湖北省,1
101,114.317371,30.423975,武汉东湖学院图书馆,武汉市,湖北省,1
102,114.371865,30.578276,武汉光谷职业学院图书馆,武汉市,湖北省,1
103,114.450092,30.480851,湖北第二师范学院图书馆,武汉市,湖北省,1
104,114.193156,30.628698,悠贝亲子图书馆,武汉市,湖北省,1
105,114.420501,30.437014,武汉传媒学院图书馆,武汉市,湖北省,1
106,114.43621,30.417617,湖北经济学院图书馆,武汉市,湖北省,1
107,114.214091,30.588353,武汉图书馆军休三中心共建图书馆,武汉市,湖北省,1
108,114.476467,30.481592,24小时自助图书馆(二妃山庄前厅部西南),武汉市,湖北省,1
109,114.270667,30.448068,湖北中医药大学黄家湖校区图书馆,武汉市,湖北省,1
110,114.269449,30.632814,24小时自助图书馆(后湖大道),武汉市,湖北省,1
111,114.40509,30.632257,24小时自助图书馆(沿港路),武汉市,湖北省,1
112,114.315048,30.510424,武汉市少儿图书馆南湖街分馆,武汉市,湖北省,1
113,114.265617,30.428837,武汉交通职业学院图书馆,武汉市,湖北省,1
114,114.162542,30.504865,悠贝亲子图书馆(经开文汐素质成长中心),武汉市,湖北省,1
115,114.404359,30.640249,24小时自助图书馆(和平大道),武汉市,湖北省,1
116,114.376407,30.403695,武汉信息传播职业技术学院图书馆,武汉市,湖北省,1
117,114.266933,30.437754,武汉科技大学图书馆(黄家湖西路),武汉市,湖北省,1
118,114.372788,30.689201,湖北大学知行学院图书馆,武汉市,湖北省,1
119,114.212216,30.598284,24小时自助图书馆(南泥湾大道),武汉市,湖北省,1
120,114.255704,30.649501,将军路文化广场图书馆,武汉市,湖北省,1
121,114.391924,30.529708,中国数字图书馆,武汉市,湖北省,1
122,114.222509,30.652311,武汉轻工大学金银湖校区图书馆,武汉市,湖北省,1
123,114.158517,30.514117,江汉大学-图书馆,武汉市,湖北省,1
124,114.299834,30.57917,自助图书馆(暂停营业),武汉市,湖北省,1
125,114.235393,30.637623,武汉轻工大学图书馆,武汉市,湖北省,1
126,114.359738,30.593289,书小鱼·共享图书馆(保利馆),武汉市,湖北省,1
127,114.234834,30.566869,武汉船舶职业技术学院图书馆,武汉市,湖北省,1
128,114.277007,30.549492,莲花湖社区图书阅览室,武汉市,湖北省,1
129,114.308224,30.594845,武汉图书馆24小时自助图书馆,武汉市,湖北省,1
130,114.162653,30.468622,汤湖图书馆,武汉市,湖北省,1
131,114.410336,30.468171,武汉华夏理工学院图书馆,武汉市,湖北省,1
132,114.226682,30.580722,武汉图书馆24小时自助图书馆,武汉市,湖北省,1
133,114.25728,30.611976,Wuhan Library24小时自助图书馆,武汉市,湖北省,1
134,114.300316,30.598348,浪丘英语图书馆,武汉市,湖北省,1
135,114.415185,30.5415,德善公益图书馆大李村书屋,武汉市,湖北省,1
136,114.456588,30.579928,武汉市青少年儿童图书馆武东分馆,武汉市,湖北省,1
137,114.26799,30.55966,江汉桥社区图书阅览室,武汉市,湖北省,1
138,114.316982,30.415216,汉口学院-图书馆,武汉市,湖北省,1
139,114.308835,30.486291,武昌首义学院南区图书馆,武汉市,湖北省,1
140,114.226634,30.599617,发展社区-图书馆,武汉市,湖北省,1
141,114.24595,30.628489,全英图书馆,武汉市,湖北省,1
142,114.264952,30.570691,硚口区城市管理(执法)局离退休干部党支部阅览室,武汉市,湖北省,1
143,114.338366,30.377402,武汉纺织大学阳光校区图书馆,武汉市,湖北省,1
144,114.300936,30.607654,解放公园-24小时自助图书馆,武汉市,湖北省,1
145,114.419554,30.701222,眼镜图书馆,武汉市,湖北省,1
146,114.324087,30.357122,江夏区青少年读书馆(新华书店分店),武汉市,湖北省,1
147,114.200532,30.59498,24小时自助图书馆(解放大道),武汉市,湖北省,1
148,114.153244,30.489539,24小时自助图书馆(联城路),武汉市,湖北省,1
149,114.461106,30.436226,武汉商贸职业学院图书馆,武汉市,湖北省,1
150,114.365014,30.620114,图书馆,武汉市,湖北省,1
151,114.41619,30.696431,中国梦图书馆,武汉市,湖北省,1
152,114.139381,30.62539,武汉市东西湖区图书馆,武汉市,湖北省,1
153,114.398885,30.48606,图书馆信息服务中心,武汉市,湖北省,1
154,114.379489,30.4745,中南财经政法大学南湖校区图书阅览中心,武汉市,湖北省,1
155,114.417375,30.392372,湖北美术学院藏龙岛校区图书馆,武汉市,湖北省,1
156,114.254779,30.572884,悠贝亲子图书馆,武汉市,湖北省,1
157,114.388142,30.474631,中南财经政法大学南湖校区法学图书馆,武汉市,湖北省,1
158,114.314775,30.347088,江夏区图书馆,武汉市,湖北省,1
159,114.191652,30.460311,(汉南区)文化馆图书馆沌口街分馆,武汉市,湖北省,1
160,114.153026,30.4896,沌阳街文体事业服务中心图书阅览室,武汉市,湖北省,1
161,114.268674,30.601284,江汉区图书馆金桥书院(暂停营业),武汉市,湖北省,1
162,114.424021,30.703096,文体图书馆,武汉市,湖北省,1
163,114.150724,30.628949,24小时自助图书馆,武汉市,湖北省,1
164,114.171949,30.661641,诺丁图书阅读室,武汉市,湖北省,1
165,114.390561,30.471591,红色中南党史阅览室,武汉市,湖北省,1
166,114.035953,30.576905,武汉市蔡甸区图书馆,武汉市,湖北省,1
167,114.159257,30.512648,江汉大学法学院资料室阅览室,武汉市,湖北省,1
168,114.087571,30.462508,武汉商学院北区图书馆,武汉市,湖北省,1
169,114.527889,30.713001,武汉生物工程学院图书馆,武汉市,湖北省,1
170,114.375325,30.628925,Inco.英语图书馆,武汉市,湖北省,1
171,114.370334,30.870181,黄陂图书馆,武汉市,湖北省,1
172,114.406083,30.371385,湖北水利水电职业技术学院-图书馆,武汉市,湖北省,1
173,114.314702,30.351562,24小时自助图书馆(熊廷弼街),武汉市,湖北省,1
174,114.139415,30.625359,东西湖区总工会职工阅览中心,武汉市,湖北省,1
175,114.139567,30.625302,湖北作家文献中心,武汉市,湖北省,1
176,114.730851,30.538248,鄂州市华容图书馆,鄂州市,湖北省,1
177,114.287061,30.62468,武汉地铁自助图书馆,武汉市,湖北省,1
178,114.413417,30.472721,悠贝,武汉市,湖北省,1
179,114.384972,30.457017,书小鱼共享图书馆,武汉市,湖北省,1
180,114.028936,30.529199,长江大学武汉校区图书馆,武汉市,湖北省,1
181,114.07487,30.461658,24小时自助图书馆,武汉市,湖北省,1
182,114.618256,30.456304,中国地质大学未来城校区图书馆,武汉市,湖北省,1
183,114.249247,30.613617,银河里社区电子阅览室,武汉市,湖北省,1
184,114.226563,30.580858,武汉市第十七中学24小时自助图书馆,武汉市,湖北省,1
185,114.218724,30.559278,武汉地铁自助图书馆,武汉市,湖北省,1
186,114.448756,30.490095,湖北体育职业学院电子阅览室,武汉市,湖北省,1
187,114.209566,30.565625,玫瑰西园社区图书阅览室,武汉市,湖北省,1
188,114.437738,30.464612,武汉市仪表电子学校图书馆,武汉市,湖北省,1
189,114.3241,30.357032,江夏区图书馆青少年分馆,武汉市,湖北省,1
190,114.085243,30.31216,武汉市汉南区图书馆,武汉市,湖北省,1
191,114.136971,30.675372,网安学院图书馆,武汉市,湖北省,1
192,114.132638,30.624393,武汉图书馆24小时自助图书馆(六顺路),武汉市,湖北省,1
193,114.244914,30.647235,武汉市常青树实验学校图书馆,武汉市,湖北省,1
194,114.086591,30.315518,24小时自助图书馆,武汉市,湖北省,1
195,114.330279,30.354975,公益图书馆,武汉市,湖北省,1
196,114.335981,30.344181,湖北生态工程职业技术学院网络电子阅览室,武汉市,湖北省,1
197,114.184854,30.494234,图书馆,武汉市,湖北省,1
198,114.035792,30.576862,新华书店图书馆活动展览厅,武汉市,湖北省,1
199,114.026828,30.579306,24小时自助图书馆,武汉市,湖北省,1
200,114.172892,30.499789,海豚儿童阅览室,武汉市,湖北省,1
201,114.191617,30.460247,图书·电子阅览室,武汉市,湖北省,1
202,114.092892,30.352698,24小时自助图书馆,武汉市,湖北省,1
203,114.407906,30.400612,武汉设计工程学院新图书馆,武汉市,湖北省,1
204,114.409308,30.401009,武汉设计工程学院图书馆,武汉市,湖北省,1
205,114.433917,30.398826,武汉体育学院体育科技学院图书馆,武汉市,湖北省,1
206,114.417891,30.385707,武汉纺织大学外经贸学院图书馆,武汉市,湖北省,1
207,113.838809,30.64422,汉川市图书馆,孝感市,湖北省,1
208,114.88881,30.43008,学府书店,黄冈市,湖北省,1
209,114.908332,30.432191,黄冈市图书馆,黄冈市,湖北省,1
210,114.708748,30.774193,新洲职高图书馆,武汉市,湖北省,1
211,114.801935,30.843898,新洲区图书馆,武汉市,湖北省,1
212,113.841418,30.662344,汉江书房祥和分馆,孝感市,湖北省,1
213,113.959256,30.914715,孝感市图书馆新馆,孝感市,湖北省,1
214,115.020302,30.185371,野兽国图书馆(湿地公园店),黄石市,湖北省,1
215,114.886275,30.382194,鄂州市图书馆新馆,鄂州市,湖北省,1
216,114.398968,30.371143,武昌职业学院图书馆,武汉市,湖北省,1
217,114.329365,30.357633,24小时自助图书馆,武汉市,湖北省,1
218,114.12823,30.625178,武汉警官职业学院(东西湖校区)-图书馆,武汉市,湖北省,1
219,113.914703,30.937225,湖北工程学院图书馆,孝感市,湖北省,1
220,114.558122,30.459552,豹澥图书馆,武汉市,湖北省,1
221,114.874709,30.455911,黄州区图书馆,黄冈市,湖北省,1
222,114.547797,30.713918,武汉工程职业技术学院图书馆服务部,武汉市,湖北省,1
223,114.871384,30.640239,团风县图书馆,黄冈市,湖北省,1
224,114.035892,30.576792,汉阳县图书馆,武汉市,湖北省,1
225,115.090227,30.214627,黄石港区图书馆,黄石市,湖北省,1
226,115.04375,30.196574,黄石市图书馆,黄石市,湖北省,1
227,115.068964,30.195063,绘本TAXI儿童连锁图书馆,黄石市,湖北省,1
228,114.892979,30.452147,黄冈科技职业学院图书馆,黄冈市,湖北省,1
229,114.679679,30.523932,图书馆,鄂州市,湖北省,1
230,113.774447,31.014553,云梦县图书馆,孝感市,湖北省,1
231,114.314674,29.857161,咸宁市图书馆,咸宁市,湖北省,1
232,114.974823,30.102659,大冶市图书馆,黄石市,湖北省,1
233,115.024826,30.21158,湖北理工学院图书馆,黄石市,湖北省,1
234,114.076585,30.313434,武汉市汉南区纱帽中学图书馆,武汉市,湖北省,1
235,114.084452,30.306059,武汉经济技术开发区(汉南区)文化馆图书馆纱帽街分馆,武汉市,湖北省,1
236,114.895317,30.3756,鄂州职业大学图书馆,鄂州市,湖北省,1
237,114.950784,30.176333,黄石市铜都小学-下陆图书馆,黄石市,湖北省,1
238,114.616722,31.282173,红安县图书馆,黄冈市,湖北省,1
239,114.285466,29.871492,咸宁市咸安区图书馆,咸宁市,湖北省,1
240,114.378257,30.891096,图书阅览室,武汉市,湖北省,1
241,113.931832,29.96197,湖北省嘉鱼县图书馆,咸宁市,湖北省,1
242,113.930913,30.907671,孝感市孝南区图书馆(暂停营业),孝感市,湖北省,1
243,114.974855,30.102647,大冶市图书馆,黄石市,湖北省,1
244,113.585353,30.940966,应城市图书馆,孝感市,湖北省,1
245,115.026731,30.184244,湖北工程职业学院图书馆,黄石市,湖北省,1
246,114.600983,30.833142,武汉市新洲区图书馆仓埠分馆,武汉市,湖北省,1
247,114.338183,29.848778,湖北科技学院图书馆,咸宁市,湖北省,1
248,113.993582,31.254781,孝昌县图书馆,孝感市,湖北省,1
249,113.81676,30.449217,武汉市蔡甸区侏儒街中刘村图书室,武汉市,湖北省,1
250,115.065452,30.23021,湖北师范大学图书馆,黄石市,湖北省,1
251,114.299997,30.917835,武汉图书馆·金寨村共建图书室,武汉市,湖北省,1
252,115.262945,30.463395,浠水图书馆,黄冈市,湖北省,1
253,113.454105,30.360433,仙桃市图书馆,仙桃市,湖北省,1
254,114.746108,30.371573,鄂州市东港社区残疾人励志书屋,鄂州市,湖北省,1
255,113.821633,30.219703,汉南农场螃蟹养殖协会阅览室,武汉市,湖北省,1
256,115.001084,31.163901,麻城市图书馆,黄冈市,湖北省,1
257,114.974732,31.162004,麻城法院图书馆,黄冈市,湖北省,1
258,114.519672,31.148657,李先念故居图书馆,黄冈市,湖北省,1
259,114.27122,29.865084,湖北科技学院咸安校区图书馆,咸宁市,湖北省,1
260,115.106003,30.642404,马家潭水文站图书阅览室,黄冈市,湖北省,1
261,115.090338,30.214781,黄石市图书馆(黄石市文化市场综合执法支队西北),黄石市,湖北省,1
262,111.315601,30.677392,宜昌市图书馆,宜昌市,湖北省,1
263,114.298118,31.288782,图书馆,武汉市,湖北省,1
264,113.584142,30.932734,应城市图书馆宇洋分馆,孝感市,湖北省,1
265,113.832837,30.560745,幼儿童图书馆,孝感市,湖北省,1
266,111.765947,30.174365,悠贝阅读中心(松滋玉岭花园馆),荆州市,湖北省,1
267,113.905592,29.731644,赤壁图书馆,咸宁市,湖北省,1
268,113.447661,30.359931,东壁图书所,仙桃市,湖北省,1
269,111.315403,30.72414,三峡大学图书馆,宜昌市,湖北省,1
270,112.712278,29.973282,监利东方爱婴早教中心,荆州市,湖北省,1
271,112.264447,30.328291,荆州新图书馆,荆州市,湖北省,1
272,112.152792,32.045398,城市书房(星火书房),襄阳市,湖北省,1
273,111.421864,30.402283,宜都市图书馆(新馆),宜昌市,湖北省,1
274,112.224178,32.061411,襄阳市图书馆(东津新馆),襄阳市,湖北省,1
275,110.334973,31.039648,楚天路图书馆,恩施土家族苗族自治州,湖北省,1
276,113.146882,30.990627,京山市图书馆,荆门市,湖北省,1
277,109.468683,30.266277,恩施书房(恩施州图书馆书院分馆),恩施土家族苗族自治州,湖北省,1
278,115.986898,29.752011,小书虫AI阅读馆,黄冈市,湖北省,1
279,113.141543,30.649813,天门市图书馆,天门市,湖北省,1
280,109.487936,30.275268,恩施州图书馆,恩施土家族苗族自治州,湖北省,1
281,115.956533,30.095155,黄梅县图书馆,黄冈市,湖北省,1
282,112.106032,31.996639,城市书房(营盘书房),襄阳市,湖北省,1
283,114.866494,30.643339,残疾人阅览室,黄冈市,湖北省,1
284,114.867893,30.638005,团风镇综合文化站图书室,黄冈市,湖北省,1
285,114.867953,30.638008,团风镇综合文化站图书馆,黄冈市,湖北省,1
286,113.970275,30.884051,孝南区图书馆开发区分馆,孝感市,湖北省,1
287,115.412815,30.807373,罗田县图书馆,黄冈市,湖北省,1
288,114.874071,30.449613,图书馆,黄冈市,湖北省,1
289,114.341682,31.018,武汉市少年儿童图书馆(联合村分馆),武汉市,湖北省,1
290,111.337063,30.754058,宜昌市夷陵区图书馆,宜昌市,湖北省,1
291,114.892214,30.450087,黄冈科技职业学院电子阅览室,黄冈市,湖北省,1
292,115.217653,29.869591,阳新图书馆,黄石市,湖北省,1
293,111.745369,30.164447,松滋市图书馆,荆州市,湖北省,1
294,113.776014,30.497928,汉川市图书馆南河乡分馆,孝感市,湖北省,1
295,115.421783,30.219694,蕲春县图书馆(新址),黄冈市,湖北省,1
296,112.211261,30.351309,荆州市图书馆(古城分馆),荆州市,湖北省,1
297,113.687589,31.257755,安陆图书馆,孝感市,湖北省,1
298,110.781262,32.655682,十堰市图书馆,十堰市,湖北省,1
299,114.925328,30.474814,图书馆,黄冈市,湖北省,1
300,113.922234,30.910136,孝感市文化中心图书馆,孝感市,湖北省,1
301,111.282231,30.705844,宜昌市西陵区图书馆,宜昌市,湖北省,1
302,112.107512,31.998813,襄阳市图书馆(襄城分馆),襄阳市,湖北省,1
303,112.186789,32.079196,襄州区图书馆,襄阳市,湖北省,1
304,113.923992,30.93648,孝感市孝南区图书馆,孝感市,湖北省,1
305,115.593558,29.871538,武穴市图书馆,黄冈市,湖北省,1
306,111.439138,30.541022,猇亭区图书馆,宜昌市,湖北省,1
307,113.367731,31.715213,随州市图书馆,随州市,湖北省,1
308,109.479789,30.278902,恩施市图书馆,恩施土家族苗族自治州,湖北省,1
309,112.213102,30.334289,长江大学东校区图书馆,荆州市,湖北省,1
310,113.464902,29.814826,洪湖图书馆,荆州市,湖北省,1
311,112.76422,32.112296,枣阳市图书馆(光武路),襄阳市,湖北省,1
312,112.89906,30.420289,潜江图书馆,潜江市,湖北省,1
313,112.232463,30.058368,公安县图书馆,荆州市,湖北省,1
314,114.899241,30.201642,铁山图书馆,黄石市,湖北省,1
315,112.179057,32.108556,城市书房(车城书房),襄阳市,湖北省,1
316,112.199596,32.084622,城市书房(浩然书房),襄阳市,湖北省,1
317,113.141538,30.649839,天门市万林图书馆,天门市,湖北省,1
318,113.81682,29.241733,通城县图书馆,咸宁市,湖北省,1
319,114.763078,30.070182,大冶市图书馆茗山分馆,黄石市,湖北省,1
320,113.694026,30.774041,汉川市图书馆麻河镇分馆,孝感市,湖北省,1
321,110.334931,31.039651,巴东县图书馆,恩施土家族苗族自治州,湖北省,1
322,111.725064,30.413271,枝江市图书馆,宜昌市,湖北省,1
323,113.416545,31.687949,随州市图书馆(书寓分馆),随州市,湖北省,1
324,112.114653,32.041721,樊城区图书馆,襄阳市,湖北省,1
325,111.768576,30.173593,神奇世界,荆州市,湖北省,1
326,110.736842,32.6517,逸夫图书馆(湖北汽车工业学院),十堰市,湖北省,1
327,109.469097,30.266019,恩施州图书馆(书院分馆),恩施土家族苗族自治州,湖北省,1
328,115.211994,29.840122,绘本taxi儿童连锁图书馆,黄石市,湖北省,1
329,113.950078,31.07434,孝感市孝南区图书馆肖港分馆,孝感市,湖北省,1
330,112.857092,30.191033,潜江市图书馆老新分馆,潜江市,湖北省,1
331,115.936016,30.072915,黄梅县图书馆嘉隆图书室,黄冈市,湖北省,1
332,112.201294,30.9761,文昌阁藏书楼,荆门市,湖北省,1
333,113.603958,30.494781,汉川市图书馆脉旺镇分馆,孝感市,湖北省,1
334,110.781186,32.655563,十堰市六堰图书馆,十堰市,湖北省,1
335,114.972192,30.196024,湖北省图书馆(东方山分馆),黄石市,湖北省,1
336,111.86077,31.785634,南漳县图书馆,襄阳市,湖北省,1
337,114.276665,29.875733,快读图书馆,咸宁市,湖北省,1
338,108.948777,30.284484,利川市图书馆,恩施土家族苗族自治州,湖北省,1
339,115.02454,30.210486,湖北理工学院图书馆,黄石市,湖北省,1
340,111.207171,30.472035,长阳图书馆,宜昌市,湖北省,1
341,112.184173,30.354511,荆州市荆州区图书馆,荆州市,湖北省,1
342,114.487919,29.873073,高桥镇澄水洞村图书室,咸宁市,湖北省,1
343,110.79031,32.615312,汉江师范学院图书馆,十堰市,湖北省,1
344,115.087582,30.79454,贾庙综合文化站图书电子阅览室,黄冈市,湖北省,1
345,110.974613,30.820591,秭归县图书馆,宜昌市,湖北省,1
346,113.832525,31.617339,广水市图书馆,随州市,湖北省,1
347,111.075254,30.156355,五峰县新图书馆,宜昌市,湖北省,1
348,113.898422,29.96973,嘉鱼县图书馆鱼岳镇分馆,咸宁市,湖北省,1
349,111.641091,31.060563,远安县图书馆,宜昌市,湖北省,1
350,113.742659,31.02075,兆椿书房实验小学分馆,孝感市,湖北省,1
351,113.747841,31.026949,云梦县图书馆城关镇分馆,孝感市,湖北省,1
352,111.50014,32.550643,丹江口市图书馆均州书房,十堰市,湖北省,1
353,110.428051,32.98862,郧西县图书馆,十堰市,湖北省,1
354,114.973033,30.101606,矿尾图书馆,黄石市,湖北省,1
355,111.674106,32.385119,图书馆(市府路),襄阳市,湖北省,1
356,110.80966,32.836834,郧阳区图书馆,十堰市,湖北省,1
357,112.193636,31.044118,荆楚理工学院-图书馆(荆门市安全生产委员会西),荆门市,湖北省,1
358,110.736691,32.651703,湖北汽车工业学院-逸夫图书馆,十堰市,湖北省,1
359,113.164608,30.661469,体育中心24小时免费悦读驿站,天门市,湖北省,1
360,114.315883,29.826203,咸宁职业技术学院-教院图书馆,咸宁市,湖北省,1
361,113.823869,29.263641,玉立图书馆,咸宁市,湖北省,1
362,110.674032,31.746112,神农架林区图书馆,神农架林区,湖北省,1
363,112.201494,30.333204,荆州职业技术学院图书馆,荆州市,湖北省,1
364,114.589739,31.258282,红安县图书馆,黄冈市,湖北省,1
365,111.30763,30.706716,三峡电力职业学院图书馆,宜昌市,湖北省,1
366,111.808582,30.821788,当阳图书馆,宜昌市,湖北省,1
367,112.190821,30.973341,荆门市掇刀区图书馆,荆门市,湖北省,1
368,112.207042,31.076249,东宝区图书馆,荆门市,湖北省,1
369,112.273653,31.714403,宜城市图书馆,襄阳市,湖北省,1
370,112.247093,30.310013,沙市区图书馆,荆州市,湖北省,1
371,114.489996,29.602415,通山县图书馆,咸宁市,湖北省,1
372,112.156689,32.043524,襄阳市图书馆芝士分馆,襄阳市,湖北省,1
373,111.628981,32.263763,谷城图书馆,襄阳市,湖北省,1
374,113.453747,30.360558,沙嘴街道图书馆,仙桃市,湖北省,1
375,112.57933,30.702055,沙洋县图书馆,荆门市,湖北省,1
376,115.674038,30.741188,英山县图书馆,黄冈市,湖北省,1
377,112.898875,30.420352,曹禺图书馆,潜江市,湖北省,1
378,109.500969,30.294483,湖北民族大学图书馆(老馆),恩施土家族苗族自治州,湖北省,1
379,115.555158,29.845896,武穴市图书馆,黄冈市,湖北省,1
380,113.365139,31.714495,曾都区图书馆,随州市,湖北省,1
381,109.727764,30.60251,建始县图书馆,恩施土家族苗族自治州,湖北省,1
382,109.133647,29.669089,图书馆,恩施土家族苗族自治州,湖北省,1
383,112.587775,31.166596,湖北省钟祥市图书馆,荆门市,湖北省,1
384,110.784887,32.622783,湖北医药学院图书馆,十堰市,湖北省,1
385,109.736645,32.321622,竹溪县图书馆,十堰市,湖北省,1
386,113.395941,31.68687,随州市图书馆最好的时光分馆,随州市,湖北省,1
387,112.247067,30.310022,荆州市少年儿童图书馆,荆州市,湖北省,1
388,112.102263,32.057085,襄阳市图书馆流动图书站,襄阳市,湖北省,1
389,111.258242,31.876966,保康图书馆,襄阳市,湖北省,1
390,110.235095,32.213878,竹山县图书馆,十堰市,湖北省,1
391,114.042992,29.543642,崇阳县图书馆,咸宁市,湖北省,1
392,113.298801,31.87118,随县图书馆,随州市,湖北省,1
393,111.315337,30.677088,宜昌市盲人图书室,宜昌市,湖北省,1
394,112.171318,30.332757,湖北中医药高等专科学校图书馆,荆州市,湖北省,1
395,110.787378,32.638432,绘本图书馆,十堰市,湖北省,1
396,111.784263,30.168522,杏花村社区图书馆,荆州市,湖北省,1
397,111.632531,32.259558,谷城劝学图书馆,襄阳市,湖北省,1
398,112.185958,30.351009,长江大学文理学院图书馆,荆州市,湖北省,1
399,112.205335,32.090345,田家炳图书馆,襄阳市,湖北省,1
400,110.033281,29.889992,鹤峰县图书馆,恩施土家族苗族自治州,湖北省,1
401,115.436759,30.247851,李时珍中医药图书馆,黄冈市,湖北省,1
402,112.596408,30.991555,钟祥市图书馆柴湖分馆,荆门市,湖北省,1
403,110.790464,32.663389,七里社区图书阅览室,十堰市,湖北省,1
404,110.743529,32.653656,东风技校图书馆,十堰市,湖北省,1
405,112.208533,30.35052,荆州市社会主义学院图书馆,荆州市,湖北省,1
406,111.931102,30.916843,当阳市第二图书馆,宜昌市,湖北省,1
407,110.354475,31.045234,巴东县图书馆信陵镇分馆,恩施土家族苗族自治州,湖北省,1
408,113.803521,29.865444,嘉鱼县图书馆(高铁岭镇分馆),咸宁市,湖北省,1
409,110.807707,32.841018,兴郧路社区图书阅览室,十堰市,湖北省,1
410,113.683608,29.909447,嘉鱼县图书馆陆溪镇分馆,咸宁市,湖北省,1
411,115.020926,31.190264,阅览室,黄冈市,湖北省,1
412,115.674088,30.741162,英山县数字图书馆,黄冈市,湖北省,1
413,113.375949,30.241451,仙桃市图书馆张沟镇分馆,仙桃市,湖北省,1
414,113.308321,30.37715,仙桃市图书馆胡场分馆,仙桃市,湖北省,1
415,115.374052,30.754737,罗田理工中等专业学校图书馆,黄冈市,湖北省,1
416,113.880584,29.709601,赤壁市实验中学-赤壁图书馆分馆,咸宁市,湖北省,1
417,114.669857,29.6559,通山县大畈中心图书馆,咸宁市,湖北省,1
418,114.489995,29.602442,湖北省廉政文化图书馆通山分馆,咸宁市,湖北省,1
419,115.391677,30.989791,罗田县图书馆河铺镇分馆,黄冈市,湖北省,1
420,114.132949,31.558979,大悟县图书馆龙门分馆,孝感市,湖北省,1
421,114.687696,29.523303,通山县图书馆九宫山镇分馆,咸宁市,湖北省,1
422,115.625726,30.58777,电子阅览室,黄冈市,湖北省,1
423,113.722538,29.562909,赤壁市图书馆赵李桥分馆,咸宁市,湖北省,1
424,113.832598,31.617432,原图书馆,随州市,湖北省,1
425,112.898982,30.407111,潜江市图书馆红庙社区分馆,潜江市,湖北省,1
426,115.593687,29.871888,武穴新图书馆,黄冈市,湖北省,1
427,113.842438,29.324431,崇阳县图书馆肖岭分馆,咸宁市,湖北省,1
428,112.773001,30.505242,潜江市图书馆王场分馆,潜江市,湖北省,1
429,113.986152,29.211756,通城县图书馆塘湖镇分馆,咸宁市,湖北省,1
430,113.842278,29.180357,黄鹤村退役军人服务站阅览室,咸宁市,湖北省,1
431,112.711431,30.230918,潜江市图书馆龙湾分馆,潜江市,湖北省,1
432,112.8924,29.814778,监利市图书馆,荆州市,湖北省,1
433,112.671536,30.865164,钟祥市图书馆旧口分馆,荆门市,湖北省,1
434,112.874427,31.359803,钟祥市图书馆客店分馆,荆门市,湖北省,1
435,115.91554,29.882626,图书阅览室,黄冈市,湖北省,1
436,112.639658,30.061708,沙岗文化站图书阅览室,荆州市,湖北省,1
437,112.528419,30.284429,运粮湖管理区公共图书馆,潜江市,湖北省,1
438,112.607165,29.965374,图书阅览室,荆州市,湖北省,1
439,112.473654,30.504072,沙洋县图书馆毛李镇分馆,荆门市,湖北省,1
440,112.479434,30.272324,图书阅览室,荆州市,湖北省,1
441,112.506781,30.980374,钟祥市图书馆石牌分馆,荆门市,湖北省,1
442,112.449562,30.08087,江陵县熊河镇图书阁览室,荆州市,湖北省,1
443,112.630324,29.689098,公益图书馆,荆州市,湖北省,1
444,112.439039,31.10316,钟祥市冷水镇共兴村图书室,荆门市,湖北省,1
445,112.411272,30.036429,国创集团图书馆,荆州市,湖北省,1
446,112.531496,29.714646,石首市图书馆东升分馆,荆州市,湖北省,1
447,112.294845,30.904359,荆门市麻城镇文化站图书室,荆门市,湖北省,1
448,112.18196,30.935203,前沿图书馆,荆门市,湖北省,1
449,112.28437,31.277898,钟祥市图书馆双河分馆,荆门市,湖北省,1
450,112.182144,31.008433,荆门市图书馆新馆,荆门市,湖北省,1
451,112.221857,31.150376,天津市少年儿童图书馆(东宝分馆),荆门市,湖北省,1
452,112.315998,31.429476,钟祥市图书馆胡集分馆,荆门市,湖北省,1
453,112.077173,30.364832,荆州学院图书馆,荆州市,湖北省,1
454,112.732225,32.132681,荆楚少儿图书馆枣阳市分馆,襄阳市,湖北省,1
455,111.93117,30.916728,淯溪图书馆,宜昌市,湖北省,1
456,111.787506,30.830184,城市书房(香榭三路店),宜昌市,湖北省,1
457,111.596999,30.520699,安福寺图书馆,宜昌市,湖北省,1
458,111.637116,31.067606,图书馆,宜昌市,湖北省,1
459,112.184916,32.054085,道安图书馆,襄阳市,湖北省,1
460,112.132277,32.011078,襄城区图书馆,襄阳市,湖北省,1
461,112.130788,32.011339,檀溪新居图书馆,襄阳市,湖北省,1
462,112.107513,31.998817,湖北文理学院图书馆襄城区分馆,襄阳市,湖北省,1
463,112.141041,32.047267,电子图书阅览室,襄阳市,湖北省,1
464,112.14444,32.051198,病案图书室,襄阳市,湖北省,1
465,112.124736,32.039615,樊城区退役军人服务中心图书流动站,襄阳市,湖北省,1
466,112.081682,32.005613,襄阳职业技术学院图书馆,襄阳市,湖北省,1
467,112.042169,31.998943,湖北文理学院-报刊阅览室,襄阳市,湖北省,1
468,111.428775,30.669836,三峡旅游职业技术学院图书馆,宜昌市,湖北省,1
469,111.333602,30.668801,宜昌市图书馆合益路社区分馆,宜昌市,湖北省,1
470,111.319056,30.727611,云锦电子阅览室,宜昌市,湖北省,1
471,111.313091,30.69215,湖北三峡职业技术学院图书馆,宜昌市,湖北省,1
472,111.282938,30.712938,宜昌市图书馆西陵区土街头社区分馆,宜昌市,湖北省,1
473,111.505285,31.654725,图书室,襄阳市,湖北省,1
474,111.210898,31.107674,夷陵区图书馆雾渡河分馆,宜昌市,湖北省,1
475,111.678435,32.10815,劝学图书馆,襄阳市,湖北省,1
476,111.04815,30.15177,柏年图书室,宜昌市,湖北省,1
477,111.682444,32.337987,老河口图书馆,襄阳市,湖北省,1
478,110.971757,30.822924,神奇世界儿童图书借阅馆,宜昌市,湖北省,1
479,111.258172,31.877097,襄阳市图书馆第五分馆,襄阳市,湖北省,1
480,111.227138,31.821537,保康县图书馆朱家厂村阅览室,襄阳市,湖北省,1
481,111.532601,32.547562,清源图书馆,十堰市,湖北省,1
482,111.492971,32.526033,丹江口市图书馆,十堰市,湖北省,1
483,110.738565,32.057713,房县图书馆,十堰市,湖北省,1
484,110.29919,30.452209,琦圣图书馆,恩施土家族苗族自治州,湖北省,1
485,110.80656,32.658559,十堰图书馆(传媒大厦分馆),十堰市,湖北省,1
486,110.439073,32.134025,阅览室,十堰市,湖北省,1
487,110.736788,32.651709,十堰市张湾区图书馆,十堰市,湖北省,1
488,110.679502,32.645434,花果园社区图书阅览室,十堰市,湖北省,1
489,110.636227,32.627313,零夕图书馆,十堰市,湖北省,1
490,110.374135,32.901993,观音村图书室(农家书屋),十堰市,湖北省,1
491,109.511438,30.292353,湖北恩施学院图书馆,恩施土家族苗族自治州,湖北省,1
492,109.473591,30.294916,城市书房(市府路店),恩施土家族苗族自治州,湖北省,1
493,109.451068,30.27401,高桥坝村图书阅览室,恩施土家族苗族自治州,湖北省,1
494,109.490304,29.985059,宣恩县图书馆,恩施土家族苗族自治州,湖北省,1
495,109.428996,30.268232,童阅汇儿童阅读中心,恩施土家族苗族自治州,湖北省,1
496,109.73737,32.320171,竹溪县图书馆,十堰市,湖北省,1
497,109.413711,29.499934,来凤县图书馆,恩施土家族苗族自治州,湖北省,1
498,109.409103,29.501854,来凤县图书馆流动服务点,恩施土家族苗族自治州,湖北省,1
499,109.331005,29.572634,来凤县图书馆三胡乡分馆,恩施土家族苗族自治州,湖北省,1
500,110.046021,33.155607,爱家乡图书馆,十堰市,湖北省,1
501,108.833045,30.265677,阅览室,恩施土家族苗族自治州,湖北省,1
502,108.947736,29.523459,杨中小图书馆,恩施土家族苗族自治州,湖北省,1
503,108.795527,30.424694,利川市图书馆南坪乡分馆,恩施土家族苗族自治州,湖北省,1
504,108.709647,30.2671,利川市图书馆江营镇分馆,恩施土家族苗族自治州,湖北省,1
