longitude,latitude,id,name,address
114.301074,30.533111,0,武汉左邻商务宾馆,武昌区
114.309591,30.547346,1,如家酒店(武汉黄鹤楼昙华林粮道街店),武昌区
114.341876,30.555732,2,武汉铭雅公寓(楚河汉街店),武昌区
114.326408,30.536220,3,城市便捷酒店(武汉中南路傅家坡店),武昌区
114.314915,30.531311,4,百时快捷酒店(武汉武昌火车站店),武昌区
114.316873,30.525446,5,武汉维纳斯主题酒店(武昌火车站店),武昌区
114.314585,30.525718,6,7天连锁酒店(武汉武昌火车站地铁站店),武昌区
114.295642,30.547167,7,丽锦宾馆(武汉黄鹤楼户部巷店),武昌区
114.342148,30.586276,8,武汉她他情侣酒店公寓,武昌区
114.296453,30.540294,9,沐子艺术酒店(武汉音乐学院店),武昌区
114.310111,30.564116,10,武汉天鹅恋情侣酒店积玉桥店,武昌区
114.307974,30.554844,11,7天连锁酒店(武汉积玉桥地铁站店),武昌区
114.339749,30.555032,12,武汉安顺民宿,武昌区
114.328187,30.578804,13,武汉泰宁公寓,武昌区
114.342740,30.585625,14,如佳主题情侣酒店公寓(销品茂店),武昌区
114.310338,30.533642,15,7天连锁酒店(武汉武昌火车站首义路地铁站店),武昌区
114.312986,30.548387,16,武汉简园民宿,武昌区
114.328821,30.579340,17,武汉温馨酒店式公寓,武昌区
114.333393,30.528547,18,7天酒店(武汉丁字桥中南路地铁站店),武昌区
114.319552,30.508421,19,锦江之星(武汉南湖平安路店),武昌区
114.342822,30.585534,20,致青春主题公寓酒店,武昌区
114.319226,30.542965,21,7天连锁酒店(武汉中山路小东门地铁站店),武昌区
114.342111,30.586306,22,阳光公寓(武汉销品茂店),武昌区
114.322686,30.537405,23,如家快捷酒店(武汉黄鹤楼中南傅家坡店),武昌区
114.341812,30.555412,24,武汉创富商务宾馆,武昌区
114.301009,30.545791,25,嘉云怡宾馆,武昌区
114.341847,30.596682,26,武汉才华旅馆,武昌区
114.30078,30.545699,27,武汉宇坤宾馆,武昌区
114.317320,30.532211,28,武汉福缘百合连锁酒店(中山路辅路),武昌区
114.314819,30.558213,29,猫小姐的樱花旅舍(昙华林户部巷店),武昌区
114.317531,30.534293,30,武汉悦东方酒店(黄鹤楼武昌火车站店),武昌区
114.324885,30.531860,31,7天连锁酒店(武汉傅家坡梅苑小区地铁站店),武昌区
114.338032,30.585930,32,速8酒店(武汉徐家棚地铁站店),武昌区
114.342091,30.555971,33,武汉同成酒店式公寓,武昌区
114.337200,30.557774,34,武汉奔爱四季酒店,武昌区
114.342602,30.585739,35,武汉海之韵海洋公寓,武昌区
114.321590,30.549730,36,武汉美家旅馆,武昌区
114.307419,30.538791,37,怡莱酒店(首义广场店),武昌区
114.299661,30.546982,38,武汉假日阳光精品酒店,武昌区
114.341960,30.555770,39,武汉三只熊酒店公寓,武昌区
114.317572,30.532142,40,武汉悠然精品时尚公寓(武昌火车站店),武昌区
114.316018,30.553070,41,安悦太空舱青年旅舍(武汉户部巷店),武昌区
114.316580,30.544124,42,优居美伦酒店(武汉黄鹤楼户部巷店),武昌区
114.301739,30.531022,43,汉庭酒店(武汉复兴路地铁站店),武昌区
114.317251,30.531461,44,万金辉都酒店(武汉武昌火车站店),武昌区
114.343898,30.557889,45,武汉金鑫商务宾馆,武昌区
114.341320,30.524187,46,中瑞·路行酒店,武昌区
114.337190,30.557774,47,优居湖景酒店(武汉汉街万达店),武昌区
114.337249,30.557771,48,S.A倔强天使酒店公寓,武昌区
114.317175,30.531217,49,汉庭酒店(武昌火车站地铁站店),武昌区
114.293692,30.542529,50,武汉金万坤宾馆,武昌区
114.314025,30.525166,51,99优选酒店(武昌火车站地铁站店),武昌区
114.318588,30.532814,52,武汉帅帅招待所,武昌区
114.301528,30.548426,53,武汉楚材旅馆(黄鹤楼户部巷店),武昌区
114.317544,30.532234,54,速8酒店(武汉武昌火车站地铁站店),武昌区
114.319216,30.532424,55,99旅馆连锁(武汉武昌火车站店),武昌区
114.298407,30.540680,56,丝路驿(武汉黄鹤楼户部巷店),武昌区
114.352204,30.600046,57,武汉禧莱宾馆,武昌区
114.337338,30.557716,58,武汉汉街环球中心酒店,武昌区
114.342111,30.586296,59,武汉温馨如家公寓,武昌区
114.341745,30.555597,60,武汉便捷公寓(楚河汉街店),武昌区
114.342601,30.585727,61,速7公寓,武昌区
114.317220,30.531195,62,1314情侣主题酒店(武汉武昌火车站店),武昌区
114.335465,30.556730,63,和平旅馆(武汉汉街店),武昌区
114.334259,30.531265,64,中南国际汇铂金影院酒店,武昌区
114.301714,30.531204,65,武汉江南四季酒店,武昌区
114.334868,30.540520,66,武汉万国假日酒店(洪山广场店),武昌区
114.346766,30.586615,67,小舍太空舱青年公寓(武汉徐东店),武昌区
114.305678,30.555930,68,武汉汉宫银座公寓,武昌区
114.302395,30.538042,69,武汉明天宾馆,武昌区
114.297515,30.548473,70,7天连锁酒店(武汉黄鹤楼户部巷美食街店),武昌区
114.317706,30.532239,71,金隆豪生酒店,武昌区
114.315771,30.532655,72,洛克菲酒店(武汉武昌火车站店),武昌区
114.317593,30.530632,73,汉庭酒店(武汉武昌火车站西广场店),武昌区
114.299857,30.516502,74,城市便捷酒店(武昌火车站店),武昌区
114.330777,30.579574,75,武汉香榭丽舍酒店(湖北大学店),武昌区
114.342035,30.555915,76,武汉薇米莱酒店式公寓(楚河汉街店),武昌区
114.335218,30.587100,77,武汉那天小栈咖啡旅馆,武昌区
114.353585,30.537212,78,武汉武大西门客栈,武昌区
114.343207,30.546316,79,武汉天忆景酒店,武昌区
114.314422,30.546724,80,尚成商务旅馆(武汉粮道街店),武昌区
114.334285,30.582403,81,城市便捷酒店(武汉武昌湖北大学店),武昌区
114.298880,30.540054,82,华驿酒店(武汉黄鹤楼户部巷音乐学院店),武昌区
114.296507,30.550283,83,锦江之星(武汉中华路黄鹤楼户部巷店),武昌区
114.321744,30.525040,84,莫泰酒店(武汉武昌火车站东广场静安路店),武昌区
114.301518,30.551436,85,纽宾凯君缘酒店(武汉黄鹤楼户部巷店),武昌区
114.299773,30.544717,86,速7连锁宾馆(武汉黄鹤楼户部巷店),武昌区
114.346456,30.587004,87,武汉中力宾馆,武昌区
114.309464,30.549081,88,武汉精选酒店,武昌区
114.360593,30.574515,89,武汉辛巴酒店式公寓,武昌区
114.318591,30.537010,90,99优选酒店(武昌火车站中山路店),武昌区
114.293776,30.545939,91,武汉神憩商务旅馆,武昌区
114.317108,30.531153,92,77连锁酒店(武昌火车站店),武昌区
114.336572,30.558135,93,38.6℃湖景·影院酒店(万达楚河汉街店),武昌区
114.325298,30.540341,94,武汉天来宾馆,武昌区
114.317569,30.532149,95,520时尚主题酒店式公寓(武昌火车站店),武昌区
114.351626,30.604104,96,武汉圣华旅馆,武昌区
114.333454,30.536839,97,城市便捷酒店(武汉中南路地铁口店),武昌区
114.350483,30.545519,98,锦江之星品尚(楚河汉街武汉大学水果湖店),武昌区
114.318233,30.536886,99,汉庭酒店(武昌火车站店),武昌区
114.347895,30.549912,100,武汉都恋精品酒店,武昌区
114.325331,30.533222,101,武汉万兴快捷酒店,武昌区
114.342314,30.595954,102,馨如家宾馆(武汉和平大道店),武昌区
114.299416,30.548123,103,如家快捷酒店(武汉户部巷店),武昌区
114.342283,30.586136,104,佳源时尚主题公寓(武汉徐东大街店),武昌区
114.343750,30.557852,105,阳光168宾馆,武昌区
114.342283,30.586133,106,1314情侣主题公寓(武汉徐东销品茂店),武昌区
114.309718,30.563653,107,武汉尚斐主题公寓,武昌区
114.308205,30.545576,108,武汉亚康商务旅馆,武昌区
114.354363,30.581113,109,武汉七鑫酒店公寓(徐东汪家墩地铁店),武昌区
114.31469,30.531436,110,锦江之星(武汉武昌火车站店),武昌区
114.318302,30.522709,111,武汉汉客hank艺术客栈 (武昌火车站店),武昌区
114.332396,30.538269,112,如家酒店(武汉中南地铁站天紫广场店),武昌区
114.314946,30.53016,113,雅斯特酒店(武昌火车站地铁站店),武昌区
114.317427,30.532286,114,陌陌世界微酒店(武汉武昌火车站店),武昌区
114.313565,30.507386,115,武汉梦之恋主题酒店,武昌区
114.296308,30.547042,116,武汉阳光98旅馆民主路店,武昌区
114.298551,30.546530,117,武汉都念精品酒店,武昌区
114.336457,30.558008,118,武汉北岛酒店(楚河汉街店),武昌区
114.315291,30.546730,119,武汉88旅馆,武昌区
114.318578,30.520243,120,武汉静安大酒店,武昌区
114.314382,30.525542,121,武汉随缘旅馆,武昌区
114.307268,30.536927,122,武汉豆丁公寓,武昌区
114.330759,30.544783,123,洪锦酒店,武昌区
114.329911,30.580237,124,武汉丽晶晶公寓,武昌区
114.356373,30.536251,125,汉庭酒店(武汉大学店),武昌区
114.324976,30.532451,126,豆豆智慧旅馆(武汉傅家坡长途客运站店),武昌区
114.350391,30.553010,127,中南旅馆(武汉中南医院店),武昌区
114.341993,30.555671,128,巴厘岛公寓(楚河汉街店),武昌区
114.309485,30.538555,129,城市便捷酒店(武汉黄鹤楼首义地铁站店),武昌区
114.298128,30.543349,130,天马城市旅馆(武汉司门口店),武昌区
114.331419,30.582792,131,武汉玩家青年旅舍,武昌区
114.328023,30.578715,132,嘉禾时尚公寓(湖北大学店),武昌区
114.325194,30.500813,133,雅斯特酒店(武汉南湖理工大学佰港城店),武昌区
114.342224,30.586342,134,武汉e家公寓酒店,武昌区
114.324188,30.531299,135,武汉旺旺青年公寓,武昌区
114.341600,30.555592,136,武汉城市花园公寓,武昌区
114.356292,30.536361,137,贝壳酒店(武汉大学店),武昌区
114.337561,30.557663,138,武汉瑞斯曼酒店,武昌区
114.325782,30.580118,139,汉驿连锁酒店(武汉湖北大学店),武昌区
114.318376,30.532988,140,武汉珍珍家庭公寓,武昌区
114.297069,30.549848,141,武汉尚果创意酒店(黄鹤楼户部巷中华路店),武昌区
114.320385,30.528047,142,武汉春燕来住宿,武昌区
114.339592,30.555517,143,暖窝窝民宿(武汉楚河汉街店),武昌区
114.307845,30.538956,144,武汉天顺城市旅店,武昌区
114.306452,30.533783,145,99优选酒店(武昌首义路地铁站店),武昌区
114.317731,30.532115,146,武汉格阁小屋公寓,武昌区
114.310832,30.533023,147,枫树园青旅(武昌火车站店),武昌区
114.305496,30.555957,148,武汉积玉桥G佳公寓(和平大道分店),武昌区
114.313642,30.512600,149,武汉银梦时尚宾馆,武昌区
114.302761,30.548427,150,缘爱酒店(武汉黄鹤楼户部巷店),武昌区
114.336917,30.532270,151,城市便捷酒店(武汉武珞路中南宝通寺地铁站店),武昌区
114.322135,30.544057,152,武汉金叶城市宾馆,武昌区
114.311314,30.565964,153,千百度酒店式公寓(万达店),武昌区
114.336425,30.558090,154,春风里酒店式公寓(武汉汉街万达广场店),武昌区
114.333239,30.527188,155,阳光大学生公寓(武汉丁字桥店),武昌区
114.305354,30.519419,156,汉庭酒店(武昌火车站起义门店),武昌区
114.351599,30.599526,157,武汉诚邦MO酒店,武昌区
114.326100,30.573513,158,武汉筑梦者太空舱酒店,武昌区
114.306873,30.536276,159,武汉天怡旅馆,武昌区
114.323063,30.530008,160,武汉鑫梦招待所,武昌区
114.329805,30.580649,161,武汉77优品酒店,武昌区
114.298743,30.542530,162,怡莱酒店（武汉黄鹤楼户部巷核桃酒店）,武昌区
114.317342,30.531299,163,武汉火烈鸟青年旅社,武昌区
114.309609,30.563601,164,悦城公寓(武汉江滩店),武昌区
114.340586,30.593129,165,华怡酒店(原如家联盟华驿酒店),武昌区
114.299450,30.543223,166,梦之恋主题酒店(黄鹤楼店),武昌区
114.324323,30.574547,167,武汉怡然公寓,武昌区
114.344463,30.544700,168,武汉时尚轩旅馆,武昌区
114.341904,30.555560,169,武汉星辰太空舱青年旅社,武昌区
114.303911,30.539695,170,武汉梦江南商务宾馆(原武汉菲尔连锁酒店),武昌区
114.347788,30.548111,171,武汉鑫梦酒店(楚河汉街店),武昌区
114.348101,30.546516,172,城市便捷酒店(武汉中南医院水果湖地铁站店),武昌区
114.325186,30.532213,173,城市四季酒店(武汉梅苑小区地铁站店),武昌区
114.359891,30.575685,174,雅斯特酒店(武汉楚河汉街东湖岳家嘴地铁站店),武昌区
114.300223,30.548711,175,成开青年酒店,武昌区
114.328793,30.530204,176,武汉盛世酒店公寓,武昌区
114.342816,30.585667,177,武汉天鹅情酒店,武昌区
114.334410,30.531198,178,武汉卡尔斯影院公寓,武昌区
114.336411,30.558065,179,楚汉望沙酒店,武昌区
114.318408,30.532636,180,武汉黄冈旅馆,武昌区
114.299659,30.545828,181,宜必思酒店(武汉司门口黄鹤楼地铁站店),武昌区
114.315583,30.555721,182,武汉归来青年旅舍,武昌区
114.318336,30.526468,183,武汉园丁宾馆,武昌区
114.336375,30.557948,184,蓝湾酒店(楚河汉街店),武昌区
114.342308,30.586180,185,武汉F9公寓,武昌区
114.323814,30.518896,186,城市便捷酒店(武汉武昌火车站东广场店),武昌区
114.305549,30.547558,187,武汉拉普达青年公寓,武昌区
114.308461,30.537440,188,武汉凯邦快捷宾馆首义店,武昌区
114.304034,30.538177,189,俪居美伦酒店(武汉黄鹤楼首义广场店),武昌区
114.354224,30.581173,190,武汉港湾酒店公寓,武昌区
114.355539,30.571834,191,世纪时尚酒店(武汉楚河汉街店),武昌区
114.342742,30.585691,192,武汉爱家酒店公寓,武昌区
114.354243,30.581177,193,武汉平霞赛百家公寓,武昌区
114.334392,30.531134,194,象牙民宿(武汉中南国际汇店),武昌区
114.300354,30.547375,195,武汉自由城客栈,武昌区
114.342282,30.586260,196,武汉祥和情侣主题公寓(徐东销品茂店),武昌区
114.330280,30.549425,197,怡莱酒店(武汉洪山广场店),武昌区
114.341849,30.555744,198,武汉南乡子公寓,武昌区
114.309130,30.539640,199,武汉梦园宾馆,武昌区
114.333245,30.528080,200,城市便捷酒店(武汉梅苑小区地铁站丁字桥路店),武昌区
114.324086,30.531562,201,武汉等你主题青年旅舍,武昌区
114.350148,30.554514,202,武汉康达民宿,武昌区
114.308628,30.548196,203,99优选酒店(武汉黄鹤楼户部巷胭脂路店),武昌区
114.317350,30.531218,204,速7酒店式公寓(武汉武昌火车站店),武昌区
114.303646,30.534482,205,锦江之星(武汉黄鹤楼复兴路地铁站店),武昌区
114.337160,30.557841,206,武汉丽斯酒店公寓,武昌区
114.317943,30.530368,207,梦江南商务酒店(武汉武昌火车站店),武昌区
114.354162,30.581218,208,武汉福星酒店公寓,武昌区
114.346014,30.593747,209,乔希尔城市酒店(武汉徐东地铁站店),武昌区
114.343235,30.528937,210,亚贸恒升大酒店,武昌区
114.325691,30.573844,211,城市便捷酒店(友谊大道车管所店),武昌区
114.299756,30.546593,212,城市便捷酒店(武汉黄鹤楼户部巷店),武昌区
114.299641,30.548058,213,如家酒店(武汉粮道街司门口黄鹤楼地铁站店),武昌区
114.329313,30.579832,214,新兴酒店式公寓(武汉湖北大学店),武昌区
114.341868,30.555760,215,武汉柒玖艺术酒店(万达楚河汉街地铁站店),武昌区
114.308868,30.547907,216,武汉天玺酒店,武昌区
114.314864,30.527419,217,昌瑞宾馆,武昌区
114.316882,30.535061,218,武汉远鹏招待所,武昌区
114.342108,30.555796,219,梅花引公寓(楚河汉街万达广场店),武昌区
114.342620,30.585776,220,武汉520倩侣主题公寓,武昌区
114.321037,30.574765,221,汉庭酒店(武汉湖北大学店),武昌区
114.359795,30.573919,222,武汉云鼎商务酒店,武昌区
114.337304,30.557542,223,皇冠酒店(武汉楚河汉街万达店),武昌区
114.331925,30.537717,224,锦程太空舱连锁青年公寓(武汉中南路地铁站店),武昌区
114.322545,30.544097,225,如家酒店·neo(武汉黄鹤楼民主路小东门地铁站店),武昌区
114.317513,30.532201,226,旅居乐精选酒店(武昌火车站店),武昌区
114.342033,30.555665,227,蔚兰酒店(武汉楚河汉街店),武昌区
114.33022,30.54401,228,欧喜得精品酒店(武汉中南路洪山广场店),武昌区
114.347180,30.604003,229,银河源宿酒店,武昌区
114.332719,30.527190,230,武汉music青年旅舍,武昌区
114.299128,30.540049,231,武汉皇庭都市旅馆,武昌区
114.308109,30.537504,232,武汉明宇城市旅馆,武昌区
114.300885,30.545977,233,中铁瑞微酒店(黄鹤楼户部巷店),武昌区
114.319589,30.509248,234,武汉巴厘阳光酒店,武昌区
114.371289,30.530630,235,武汉新馨住宿,武昌区
114.337133,30.557833,236,美宿枫尚酒店(武汉楚河汉街万达店),武昌区
114.335201,30.539174,237,武汉水云间青年旅舍,武昌区
114.317548,30.538617,238,武汉好客来旅馆,武昌区
114.317575,30.532187,239,随心驿青年旅舍(武汉武昌火车站店),武昌区
114.334312,30.531181,240,卡曼电竞酒店,武昌区
114.299293,30.544051,241,丽枫酒店(武汉黄鹤楼店),武昌区
114.295633,30.539975,242,天马酒店(武汉黄鹤楼店),武昌区
114.317324,30.531691,243,武汉万金168公寓,武昌区
114.320148,30.574683,244,武汉天辰公寓,武昌区
114.341605,30.555617,245,武汉甜甜圈公寓,武昌区
114.337291,30.557746,246,艾玛公寓式酒店(万达汉街店),武昌区
114.337180,30.557770,247,武汉伽玛艺术酒店(楚河汉街店),武昌区
114.308295,30.546016,248,黄鹤公寓(武汉胭脂花园店),武昌区
114.302571,30.539557,249,速7连锁宾馆(武汉彭刘杨店),武昌区
114.337287,30.531333,250,莫泰酒店(武汉武珞路中南宝通寺地铁站店),武昌区
114.343901,30.580194,251,武汉武昌飞翔公寓,武昌区
114.296341,30.534366,252,武汉好运旅馆,武昌区
114.309475,30.508106,253,武汉保利酒店南湖路店,武昌区
114.326976,30.572861,254,武汉梦8时尚旅馆,武昌区
114.300087,30.540149,255,武汉新先商务宾馆,武昌区
114.317319,30.531276,256,奔爱四季酒店(武汉武昌火车站店),武昌区
114.297820,30.509152,257,武汉美尚酒店,武昌区
114.315936,30.528529,258,假日迷你酒店,武昌区
114.337585,30.557873,259,A·HM汉美酒店公寓(武汉楚河汉街店),武昌区
114.318751,30.532721,260,武汉武昌温馨家园旅馆,武昌区
114.340270,30.553550,261,武汉半岛酒店式公寓,武昌区
114.295978,30.547117,262,武汉洪7宾馆,武昌区
114.311324,30.565959,263,武汉万达九号公寓,武昌区
114.318196,30.524157,264,思恋宾馆(武昌火车站店),武昌区
114.326382,30.542463,265,武汉润丽精品酒店,武昌区
114.317324,30.531691,266,城市之家酒店式公寓(武昌火车站店),武昌区
114.310774,30.563442,267,隆程大酒店,武昌区
114.341949,30.555923,268,好莱坞公寓(武汉楚河汉街店),武昌区
114.328082,30.578718,269,武汉七七时尚公寓,武昌区
114.313741,30.526266,270,武汉奥圣吉安商务宾馆,武昌区
114.319669,30.539529,271,武汉祥明旅馆,武昌区
114.329557,30.579286,272,武汉城市快捷公寓(湖北大学店),武昌区
114.328101,30.578739,273,武汉星七公寓,武昌区
114.343969,30.557799,274,武汉鑫发宾馆,武昌区
114.308824,30.521105,275,橙谊连锁酒店(武昌火车站武泰闸店),武昌区
114.300051,30.546424,276,108快捷宾馆,武昌区
114.343182,30.538211,277,五鑫宾馆(八一路店),武昌区
114.319644,30.536998,278,武汉泰坤宾馆,武昌区
114.317344,30.549750,279,武汉全景宾馆,武昌区
114.300968,30.551312,280,天星青年客栈(武汉黄鹤楼户部巷店),武昌区
114.337249,30.557644,281,武汉卡洛酒店,武昌区
114.325763,30.581279,282,艺选酒店(武汉徐东湖北大学店),武昌区
114.300097,30.548417,283,武汉好梦青年旅行酒店,武昌区
114.317740,30.532163,284,武汉云熙民宿,武昌区
114.336490,30.558086,285,武汉你是我的虚荣艺术酒店,武昌区
114.317396,30.532161,286,武汉向日葵之旅公寓,武昌区
114.300748,30.549847,287,戴丁连锁影院客栈(户部巷店),武昌区
114.300466,30.545893,288,成开连锁酒店(民宿客栈),武昌区
114.311840,30.547081,289,武汉要中旅馆,武昌区
114.308564,30.537732,290,武汉永源旅馆,武昌区
114.315482,30.553399,291,城市便捷酒店(武汉螃蟹岬地铁站店),武昌区
114.317324,30.531692,292,7天酒店式公寓(武昌火车站店),武昌区
114.342350,30.586104,293,武汉温雅公寓酒店,武昌区
114.343769,30.589030,294,武汉佳源公寓(销品茂店),武昌区
114.317877,30.531267,295,武汉ishine智能公寓,武昌区
114.330561,30.54417,296,汉庭酒店(武汉洪山广场民主路店),武昌区
114.336511,30.557988,297,鹿野民宿(武汉楚河汉街店),武昌区
114.328050,30.544052,298,怡尔酒店(武汉洪山广场楚河汉街店),武昌区
114.301070,30.533855,299,武汉幸运星宾馆,武昌区
114.323294,30.530407,300,武汉武昌火车站中南亚朵轻居酒店,武昌区
114.337189,30.557760,301,MS美宿臻品酒店(武汉楚河汉街万达店),武昌区
114.344096,30.557997,302,武汉梦来香宾馆,武昌区
114.344113,30.558864,303,武汉今盛宾馆,武昌区
114.298545,30.546728,304,武汉精途民宿,武昌区
114.341813,30.555658,305,番茄艺术酒店公寓,武昌区
114.337293,30.531417,306,如家商旅(金标)武汉街道口丁字桥店,武昌区
114.308975,30.547732,307,武汉锦泰商务宾馆,武昌区
114.334212,30.531416,308,武汉优恩觅公寓,武昌区
114.337469,30.557688,309,武汉万达国际酒店公寓,武昌区
114.338997,30.584669,310,简爱酒店(武汉徐东店),武昌区
114.341929,30.555746,311,武汉民国书房民宿,武昌区
114.347651,30.586622,312,武汉悦莱住宿,武昌区
114.305718,30.556905,313,武汉巧遇客栈,武昌区
114.317288,30.531278,314,武汉锦格公寓,武昌区
114.333322,30.536695,315,千百度酒店式公寓(武汉中南路店),武昌区
114.317615,30.534948,316,武汉梦之恋商务宾馆,武昌区
114.344038,30.558868,317,武汉三江旅馆,武昌区
114.317413,30.538660,318,武汉天鑫住宿,武昌区
114.298610,30.542164,319,西岸美宿酒店（黄鹤楼户部巷店）,武昌区
114.348479,30.584263,320,依米情侣度假屋(武汉徐东群星城店),武昌区
114.327901,30.578840,321,速8宾馆(武汉湖北大学店),武昌区
114.296663,30.540924,322,哈啰轻酒店(武汉黄鹤楼店),武昌区
114.337275,30.557792,323,白熊酒店式公寓(武汉汉街万达广场店),武昌区
114.316122,30.535281,324,99优选酒店(武昌火车站中南财经政法大学店),武昌区
114.317752,30.539705,325,纽宾凯希璞酒店(武汉黄鹤楼武昌火车站店),武昌区
114.354222,30.581226,326,爱家酒店公寓(武汉徐东汪家墩地铁站店),武昌区
114.307727,30.539884,327,洪鑫假日宾馆,武昌区
114.296948,30.534604,328,金宝利酒店(武汉黄鹤楼复兴路地铁站店),武昌区
114.318717,30.532705,329,武汉幸福家庭旅馆,武昌区
114.299134,30.544536,330,桔子酒店(武汉黄鹤楼长江大桥店),武昌区
114.309563,30.563688,331,Melody漫时轻居精品公寓(积玉桥地铁站店),武昌区
114.300542,30.552518,332,武汉红港宾馆,武昌区
114.342123,30.586320,333,徐东销品茂尚品酒店公寓(湖北大学店),武昌区
114.331233,30.572291,334,乐天尚品酒店(湖北大学店),武昌区
114.302844,30.519989,335,七喜城市酒店(武昌火车站店),武昌区
114.325739,30.530733,336,武汉凯乐宾馆,武昌区
114.325356,30.533581,337,鑫梦商旅宾馆(武汉梅苑小区地铁站店),武昌区
114.345923,30.551580,338,栖迟美宿,武昌区
114.316183,30.532224,339,哈啰轻酒店(武昌火车站鑫利来店),武昌区
114.295763,30.527937,340,百佳宾馆(武汉首义路店),武昌区
114.342910,30.549683,341,驿居酒店(武汉楚河汉街地铁站店),武昌区
114.330279,30.533944,342,武汉南鑫宾馆,武昌区
114.307942,30.533941,343,V+电竞酒店(武汉黄鹤楼店),武昌区
114.302494,30.533732,344,武汉紫阳湖宾馆,武昌区
114.309659,30.563588,345,VR·意大利炮电竞酒店(积玉桥地铁站店),武昌区
114.300745,30.549849,346,英若宾馆,武昌区
114.330093,30.533601,347,梧桐优选影院酒店(中南路傅家坡店),武昌区
114.336455,30.558024,348,NO.28空间公寓酒店(武汉楚河汉街万达店),武昌区
114.337162,30.557629,349,武汉万达卡斯汀酒店(楚河汉街店),武昌区
114.327207,30.536968,350,柏曼酒店(武汉中南地铁站店),武昌区
114.317032,30.535315,351,武汉天天好宾馆,武昌区
114.336538,30.557976,352,武汉洱湾酒店(楚河汉街店),武昌区
114.336446,30.558024,353,V+唯宜艺术酒店(武汉楚河汉街店),武昌区
114.361161,30.568006,354,城市便捷酒店(武汉东亭路店),武昌区
114.348461,30.565045,355,武汉陌上花开青年旅舍,武昌区
114.307910,30.540210,356,武汉豆佳宾馆,武昌区
114.309971,30.539087,357,运7酒店(黄鹤楼首义路地铁站店),武昌区
114.337266,30.557763,358,万达酒店(武汉楚河汉街店),武昌区
114.316293,30.532434,359,武汉莱卡雅苑酒店,武昌区
114.340812,30.581818,360,武汉莱客伊精品酒店,武昌区
114.355477,30.551147,361,弘毅大酒店,武昌区
114.298248,30.540444,362,武汉丝路驿青年旅舍,武昌区
114.309706,30.536171,363,哈啰轻酒店(武汉中南财经政法大学店),武昌区
114.302789,30.520452,364,纽宾凯九龙国际酒店,武昌区
114.339596,30.555498,365,荻岸美宿,武昌区
114.334410,30.531198,366,梦栖居公寓,武昌区
114.297442,30.536370,367,武汉天成旅馆,武昌区
114.299921,30.543149,368,橙谊连锁酒店(武汉黄鹤楼户部巷店),武昌区
114.311011,30.565885,369,设计师的公寓(武汉万达中心店),武昌区
114.311302,30.565944,370,品格电竞酒店(积玉桥万达店),武昌区
114.336481,30.558023,371,即刻家湖景影院酒店(武汉楚河汉街店),武昌区
114.300428,30.549011,372,哈啰轻酒店（武汉户部巷店）,武昌区
114.319789,30.522887,373,武汉彩虹梦青年旅舍,武昌区
114.337585,30.557612,374,武汉卡诺斯环球中心酒店,武昌区
114.332708,30.581080,375,沐一酒店(湖北大学店),武昌区
114.319180,30.532385,376,武汉逸飞王招待所,武昌区
114.342633,30.585782,377,武汉艾蜜思主题酒店,武昌区
114.320910,30.543597,378,武汉欧罗宾馆,武昌区
114.334494,30.543386,379,保利大酒店,武昌区
114.339101,30.584882,380,武汉指尖电竞公寓,武昌区
114.321181,30.580477,381,万象设计江景酒店(武汉绿地国际金融城店),武昌区
114.341868,30.555807,382,武汉米兰之家酒店公寓,武昌区
114.318402,30.552252,383,武汉归有湖山青年旅舍,武昌区
114.341610,30.598791,384,艺选酒店(武汉徐东杨园地铁站店),武昌区
114.311011,30.565884,385,武汉怡家精品公寓,武昌区
114.310047,30.564019,386,巴黎之吻情侣酒店(武汉积玉桥店),武昌区
114.335510,30.547192,387,武汉金达莱城市酒店,武昌区
114.324757,30.546209,388,维也纳3好酒店(武汉洪山广场民主路店),武昌区
114.335090,30.556760,389,武汉心爱家公寓,武昌区
114.347477,30.584249,390,城市便捷酒店(武汉徐东店),武昌区
114.299632,30.534199,391,莫泰酒店(武汉黄鹤楼首义广场复兴路地铁站店),武昌区
114.341793,30.555533,392,武汉江城未居艺术公寓,武昌区
114.335064,30.530863,393,广州军区中南花园饭店,武昌区
114.336541,30.558073,394,香舍空间湖景酒店(武汉汉街万达店),武昌区
114.320215,30.510350,395,丽梦电竞酒店,武昌区
114.310225,30.538865,396,武汉迎乾公寓,武昌区
114.300916,30.540354,397,维也纳国际酒店(武汉黄鹤楼彭刘杨地铁站店),武昌区
114.339131,30.584742,398,E+寓书信雁公寓酒店,武昌区
114.303772,30.539711,399,武汉如曼商务宾馆,武昌区
114.337273,30.557704,400,花花里艺术影院公寓(武汉楚河汉街店),武昌区
114.298476,30.542500,401,武汉Mini主题酒店,武昌区
114.308319,30.546256,402,奇星商务旅馆(黄鹤楼户部巷店),武昌区
114.310039,30.564081,403,武汉怡江酒店,武昌区
114.336220,30.558195,404,武汉v加唯宜艺术酒店,武昌区
114.299029,30.543267,405,武汉成开商务宾馆,武昌区
114.317427,30.537938,406,武汉乐家旅馆,武昌区
114.301907,30.535618,407,武汉金利屋宾馆,武昌区
114.298885,30.538778,408,如家商旅酒店(武汉黄鹤楼彭刘杨地铁站音乐学院店),武昌区
114.324843,30.502722,409,驿家南湖里约公寓,武昌区
114.354122,30.570381,410,武汉猫咛民宿,武昌区
114.330211,30.522919,411,布丁酒店(武汉妇幼保健院丁字桥店),武昌区
114.317789,30.532345,412,武汉快乐驿站公寓,武昌区
114.323136,30.575470,413,万珍文艺酒店(湖北大学店),武昌区
114.305450,30.555834,414,武汉林家铺子民宿,武昌区
114.337281,30.557784,415,万达环球中心酒店公寓(楚河汉街店),武昌区
114.338570,30.551023,416,麗枫酒店(武汉楚河汉街店),武昌区
114.299615,30.540183,417,丽顿华居酒店(武汉黄鹤楼音乐学院店),武昌区
114.326149,30.526420,418,汉庭酒店东广场店,武昌区
114.339864,30.586004,419,武汉瑞曼酒店,武昌区
114.298467,30.543555,420,in酒店(武汉司门口黄鹤楼地铁站店),武昌区
114.337178,30.557759,421,武汉M加艺术创意公寓,武昌区
114.321234,30.580707,422,北岛漫屿酒店(武汉绿地国际金融城店),武昌区
114.342984,30.542768,423,如家商旅酒店(武汉楚河汉街水果湖省政府店),武昌区
114.337254,30.557960,424,武汉亿欣空间酒店,武昌区
114.321203,30.580575,425,辛德拉公寓酒店(武汉绿地国际金融城店),武昌区
114.319172,30.533093,426,武汉佳禾公寓,武昌区
114.306543,30.562662,427,武汉Moni江景美宿影院酒店,武昌区
114.322176,30.576380,428,武汉FINE斐印酒店,武昌区
114.337212,30.557682,429,武汉北香阁酒店(楚河汉街店),武昌区
114.343110,30.546141,430,万寿园时尚客房连锁,武昌区
114.318955,30.539226,431,武汉仙逸宾馆,武昌区
114.309551,30.564140,432,白日梦想家影院酒店(积玉桥地铁站店),武昌区
114.342807,30.585584,433,爱家公寓,武昌区
114.369887,30.574634,434,武汉新金龙酒店徐东东湖店,武昌区
114.330463,30.579220,435,派柏·云酒店(武汉湖北大学地铁站店),武昌区
114.296517,30.547003,436,武汉泽圣嘉主题酒店,武昌区
114.366588,30.565713,437,雅斯特酒店(武汉东湖省博地铁站店),武昌区
114.350684,30.599400,438,武汉Turbo电竞酒店,武昌区
114.327203,30.536631,439,武汉楚运酒店(中南路地铁站店),武昌区
114.311369,30.544216,440,武汉黄鹤楼亚朵酒店,武昌区
114.360576,30.574566,441,曼度精品酒店公寓,武昌区
114.317024,30.535263,442,武汉兰天住宿,武昌区
114.334331,30.531162,443,早安江城精品酒店(武汉中南路地铁站亚贸广场店),武昌区
114.321243,30.580425,444,铂尔顿酒店(武汉绿地国际金融城店),武昌区
114.318599,30.532585,445,武汉枝枝花民宿,武昌区
114.319241,30.532488,446,武汉栖寓民宿,武昌区
114.372205,30.531940,447,鸿福出租屋住宿(武汉大学店),武昌区
114.343112,30.586823,448,武汉东旭商旅宾馆,武昌区
114.317694,30.538366,449,海纳酒店(武汉黄鹤楼武昌火车站地铁站店),武昌区
114.308924,30.520262,450,77精品酒店(武昌火车站店),武昌区
114.300511,30.545794,451,成开投屏影院酒店,武昌区
114.325280,30.529454,452,武汉星海大学生青年旅社,武昌区
114.334410,30.531198,453,武汉琉光影院民宿,武昌区
114.336098,30.587574,454,千季花园电竞酒店(友谊大道湖北大学店),武昌区
114.334314,30.537425,455,武汉中南出租屋,武昌区
114.336683,30.556403,456,金贵源洲际酒店,武昌区
114.342196,30.586175,457,温馨棋牌酒店,武昌区
114.331608,30.532250,458,武汉欣业旅馆,武昌区
114.318713,30.537204,459,武汉时光住宿,武昌区
114.344720,30.559001,460,武汉楚河汉街亚朵S酒店,武昌区
114.348837,30.605608,461,三嫂连锁酒店(武汉余家头店),武昌区
114.310981,30.552924,462,隐居昙华林度假酒店,武昌区
114.334547,30.533026,463,武汉天天青年旅舍,武昌区
114.360586,30.574575,464,岚波湾酒店公寓(武汉岳家嘴地铁站店),武昌区
114.306223,30.562185,465,武汉武汉空白造物江景度假酒店,武昌区
114.342362,30.586068,466,诗语主题公寓(武汉徐东店),武昌区
114.332105,30.530811,467,武汉品尚时代酒店,武昌区
114.313872,30.555036,468,武汉桃花岭大酒店,武昌区
114.354343,30.540524,469,悦阁仙品酒店(武汉大学店),武昌区
114.376486,30.531051,470,武汉万隆酒店公寓,武昌区
114.335614,30.542086,471,驿居酒店(武汉中南洪山广场地铁站店),武昌区
114.336525,30.558060,472,麒麟阁电竞影院酒店(楚河汉街店),武昌区
114.334583,30.556779,473,恋家青年旅舍(武汉楚河汉街店),武昌区
114.347183,30.551104,474,武汉楚河汉街汉秀剧场亚朵酒店,武昌区
114.317528,30.538761,475,宏宇住宿(武汉武昌火车站店),武昌区
114.335042,30.528460,476,丁字桥青年公寓,武昌区
114.330514,30.532067,477,江南商务宾馆(武汉傅家坡店),武昌区
114.337247,30.557796,478,武汉万达东湖酒店,武昌区
114.336501,30.558099,479,武汉汉街万达湖景酒店,武昌区
114.320326,30.528047,480,武汉春燕来旅馆,武昌区
114.320909,30.527029,481,武汉武昌大众旅馆,武昌区
114.319216,30.532795,482,武汉武昌火车站候鸟驿站民宿(4号店),武昌区
114.305818,30.547468,483,武汉小小新的民宿,武昌区
114.323267,30.520073,484,武汉四季鑫宝来酒店,武昌区
114.297325,30.547014,485,武汉以文会友公寓,武昌区
114.350426,30.553234,486,武汉博鑫公寓中南医院店,武昌区
114.302777,30.534554,487,武汉新如家宾馆,武昌区
114.318551,30.536695,488,武汉鑫汉宾馆,武昌区
114.343918,30.557807,489,城市便捷酒店(武汉楚河汉街地铁站店),武昌区
114.301723,30.531488,490,顺途酒店(武汉黄鹤楼复兴路地铁站店),武昌区
114.336519,30.557916,491,亚树酒店(武汉楚河汉街店),武昌区
114.333907,30.536481,492,武汉中南公寓,武昌区
114.360687,30.574548,493,武汉梵沐霖公寓,武昌区
114.310655,30.564912,494,蓝弧电竞酒店,武昌区
114.347002,30.584372,495,武汉家优公寓,武昌区
114.298474,30.543329,496,汉庭酒店(武汉黄鹤楼店),武昌区
114.316355,30.544201,497,优居美伦酒店(黄鹤楼店),武昌区
114.318026,30.533108,498,武汉安全旅馆,武昌区
114.321383,30.575103,499,凡舍设计酒店(武汉积玉桥地铁站徐东店),武昌区
114.332869,30.528240,500,拾井酒店,武昌区
114.337294,30.557792,501,纬度酒店(武汉楚河汉街店),武昌区
114.336585,30.558061,502,戈微湖景影院酒店(武汉楚河汉街店),武昌区
114.298959,30.543979,503,武汉拾光青年民宿,武昌区
114.333697,30.529122,504,武汉520时尚宾馆,武昌区
114.343234,30.546218,505,万禧宾馆,武昌区
114.372229,30.566679,506,ZMAX HOTELS(武汉东湖店),武昌区
114.305181,30.545894,507,武汉胭脂花园黄鹤公寓,武昌区
114.300232,30.547360,508,自由城际宾馆(武汉黄鹤楼户部巷店),武昌区
114.334328,30.531427,509,武汉安第斯公寓式酒店,武昌区
114.304026,30.548281,510,武汉武汉钢琴之家公寓,武昌区
114.334410,30.531198,511,武汉上舍壹间公寓,武昌区
114.337532,30.557587,512,武汉曼可酒店公寓,武昌区
114.337076,30.557882,513,瑞曼酒店(武汉汉街店),武昌区
114.336629,30.558052,514,香江云顶湖景酒店,武昌区
114.295769,30.528515,515,武汉汉馨宾馆,武昌区
114.342977,30.542778,516,如家酒店(武汉大学水果湖洪山路地铁站店),武昌区
114.335451,30.556663,517,鸿发旅馆(武汉汉街店),武昌区
114.319172,30.533094,518,武汉欣悦公寓,武昌区
114.318579,30.526303,519,武汉星晴旅馆,武昌区
114.333185,30.536859,520,星达公寓(中南路地铁站店),武昌区
114.320264,30.528040,521,武汉顺安住宿,武昌区
114.320534,30.528087,522,武汉老冯住宿,武昌区
114.320169,30.574452,523,EHA电竞酒店(武汉积玉桥店),武昌区
114.342147,30.586254,524,武汉水之恋宾馆,武昌区
114.301671,30.531233,525,知遇酒店(武汉黄鹤楼户部巷店),武昌区
114.327549,30.509882,526,武汉红亭酒店公寓,武昌区
114.338046,30.553434,527,武汉船坞创意青年旅舍,武昌区
114.347848,30.547841,528,武汉曼馨尔酒店,武昌区
114.317595,30.532098,529,武汉偶然相遇酒店,武昌区
114.317741,30.532116,530,万金s8酒店(武汉武昌火车站店),武昌区
114.302564,30.519936,531,优家主题酒店(武昌火车站店),武昌区
114.297922,30.539655,532,全全宾馆,武昌区
114.333076,30.536599,533,宗宗青年公寓,武昌区
114.315115,30.553098,534,小舍青年旅社(螃蟹岬地铁站店),武昌区
114.337132,30.557845,535,瑞曼轻奢艺术酒店(汉街店),武昌区
114.303302,30.538217,536,锦悦时尚宾馆,武昌区
114.334400,30.534330,537,武汉青为青年旅舍,武昌区
114.309613,30.563577,538,千百度电竞酒店,武昌区
114.336844,30.558036,539,武汉香舍酒店(楚河汉街店),武昌区
114.341945,30.555813,540,木子创意酒店(楚河汉街地铁站店),武昌区
114.342345,30.555883,541,汉庭酒店(武汉楚河汉街地铁站店),武昌区
114.314877,30.526532,542,鸿运客栈,武昌区
114.321084,30.580541,543,白鹿良栖江畔美宿(武汉绿地国际金融城店),武昌区
114.354120,30.570649,544,喜诚公寓(武汉楚河汉街东亭店),武昌区
114.305664,30.555886,545,武汉陌上流年-长江民宿,武昌区
114.307964,30.533904,546,全季酒店(武汉黄鹤楼首义路店),武昌区
114.342637,30.585809,547,武汉V8公寓,武昌区
114.300804,30.546088,548,武汉Fancy小姐姐公寓,武昌区
114.330497,30.532053,549,武汉洪泰旅馆,武昌区
114.317324,30.531691,550,碧海飞鸿家庭公寓(武昌火车站店),武昌区
114.309708,30.563437,551,武汉美嘉城市民宿(5号店),武昌区
114.337179,30.557771,552,武汉汉街SOHO精品公寓,武昌区
114.337179,30.557771,553,武汉汉街枫尚精致公寓,武昌区
114.309594,30.563858,554,无铭小栈公寓(武汉积玉桥地铁站店),武昌区
114.300403,30.546101,555,武汉8加2城市旅馆,武昌区
114.338989,30.584641,556,趣住酒店(武汉徐东销品茂店),武昌区
114.317780,30.545232,557,武汉德嘉艺术精品酒店,武昌区
114.349061,30.583869,558,武汉都莱公寓,武昌区
114.337179,30.557768,559,武汉美伦枫尚轻奢公寓,武昌区
114.362517,30.562296,560,滨湖大厦,武昌区
114.311254,30.565875,561,武汉墨墨民宿,武昌区
114.308227,30.533859,562,武汉惠安商务宾馆,武昌区
114.315016,30.564255,563,维也纳国际酒店(武汉楚河汉街积玉桥店),武昌区
114.300541,30.549378,564,凯莱熙酒店,武昌区
114.343907,30.557867,565,武汉安心湾宾馆,武昌区
114.318697,30.536614,566,武汉青鸟旅店,武昌区
114.337168,30.557766,567,武汉汉达湖景酒店,武昌区
114.308839,30.539747,568,武汉广菊招待所,武昌区
114.347156,30.604000,569,银河金都酒店(武汉杨园理工大学店),武昌区
114.297799,30.549896,570,桔子酒店(武汉黄鹤楼户部巷店),武昌区
114.318288,30.532749,571,武汉芳芳民宿,武昌区
114.306880,30.539687,572,武汉黄鹤楼首义广场漫心酒店,武昌区
114.301255,30.545717,573,武汉汉美宜家旅馆,武昌区
114.338992,30.584779,574,麗枫酒店,武昌区
114.324581,30.545047,575,武汉银华快捷宾馆,武昌区
114.360519,30.574522,576,武汉凯拉精品酒店式公寓(岳家嘴地铁站店),武昌区
114.306239,30.561937,577,优选智慧江景酒店(积玉桥临江店),武昌区
114.317371,30.531178,578,丽枫酒店(武昌火车站广场店),武昌区
114.337180,30.557771,579,武汉万达环球中心公寓,武昌区
114.309925,30.563698,580,云憩民宿(武汉万达店),武昌区
114.343987,30.549475,581,武汉乾坤旅馆,武昌区
114.356431,30.612668,582,维也纳酒店(武汉二七长江大桥余家头店),武昌区
114.332044,30.544147,583,湖北巴山夜雨大酒店总督府,武昌区
114.309937,30.555165,584,万源昌酒家,武昌区
114.310731,30.565145,585,武汉九尾狐艺术公寓(5号店),武昌区
114.310059,30.552840,586,雅阁欢聚酒店(昙华林店),武昌区
114.337404,30.589307,587,武汉梦行者电竞酒店,武昌区
114.309787,30.536175,588,开元M酒店(武汉圣海花园店),武昌区
114.321199,30.522226,589,速8酒店(武昌火车站东广场静安路店),武昌区
114.303112,30.539454,590,哈啰轻酒店(武汉市第三医院首义院区店),武昌区
114.341467,30.556065,591,武汉玉丰国际酒店,武昌区
114.320208,30.510416,592,武汉丽梦民宿,武昌区
114.320130,30.574539,593,武汉尘域公寓,武昌区
114.309852,30.563541,594,武汉黑比诺公寓积玉桥万达店(3号店),武昌区
114.309464,30.544964,595,盛夏光年青年客栈,武昌区
114.317450,30.532062,596,武汉Thehomestay有家民宿,武昌区
114.313538,30.555682,597,仙岛湖酒店,武昌区
114.327641,30.509885,598,兄弟公寓(武汉江南庭院店),武昌区
114.337363,30.589307,599,喆啡酒店(武汉徐东徐家棚地铁站店),武昌区
114.330239,30.522973,600,豆豆智慧旅馆(武汉丁字桥店),武昌区
114.342259,30.596183,601,武汉美辰悦尚精品酒店,武昌区
114.300725,30.546048,602,武汉遇见青年客栈,武昌区
114.334517,30.582708,603,希岸酒店(湖北大学地铁站店),武昌区
114.317602,30.531890,604,唯美时代酒店式公寓(武汉武昌火车站店),武昌区
114.325029,30.539064,605,武汉洪鑫出租屋,武昌区
114.306214,30.562088,606,单美一线江景酒店(积玉桥锦坤公寓店),武昌区
114.339148,30.584798,607,优居自助酒店(武汉徐东湖北大学店),武昌区
114.32572,30.535237,608,武汉悦宜安酒店,武昌区
114.315684,30.534639,609,派酒店(武汉武昌火车站地铁站店),武昌区
114.374019,30.529075,610,武汉学之斋酒店,武昌区
114.29683,30.53568,611,帛尚中洋酒店(武汉黄鹤楼音乐学院店),武昌区
114.311816,30.517075,612,武汉欣怡主题酒店,武昌区
114.321064,30.580488,613,陆壹壹江景公寓,武昌区
114.337170,30.557554,614,武汉灰姑娘民宿,武昌区
114.311247,30.565955,615,武汉悦薇公寓,武昌区
114.296192,30.551202,616,萨布拉酒店,武昌区
114.317690,30.524368,617,武汉东安宾馆,武昌区
114.350306,30.545463,618,锦江之星旅馆有限公司,武昌区
114.318553,30.526415,619,武汉南站住宿屋,武昌区
114.338963,30.584659,620,晶凯思智慧酒店(武汉徐东店),武昌区
114.343283,30.552420,621,湖北省质量技术监督培训中心宾馆,武昌区
114.333922,30.538546,622,康铂酒店(武汉中南路地铁站店),武昌区
114.309737,30.563565,623,武汉黑比诺酒店公寓积玉桥地铁站店,武昌区
114.334523,30.538919,624,兴隆招待所(武汉中南路人才市场店),武昌区
114.349394,30.536199,625,武汉楚河汉街武汉大学亚朵酒店,武昌区
114.317662,30.532084,626,武汉欧阳时尚公寓,武昌区
114.299270,30.542536,627,武汉江颐旅馆,武昌区
114.294061,30.523294,628,武汉万家馨酒店,武昌区
114.329741,30.586273,629,维也纳酒店(湖北大学武昌江滩徐家棚地铁站店),武昌区
114.345233,30.537457,630,武汉科园宾馆,武昌区
114.295767,30.527904,631,武汉顺顺宾馆,武昌区
114.319204,30.532781,632,武汉武昌火车站候鸟驿站民宿(3号店),武昌区
114.306804,30.534479,633,如家快捷酒店(武汉黄鹤楼首义路地铁站店),武昌区
114.331455,30.540479,634,武汉楚园饭店,武昌区
114.311330,30.565953,635,有梦生活公寓,武昌区
114.355478,30.551146,636,弘毅大酒店(武汉大学国际学术交流中心),武昌区
114.315684,30.534639,637,如家酒店(武汉黄鹤楼武昌火车站地铁站店),武昌区
114.309052,30.547741,638,武汉128商务旅馆,武昌区
114.347505,30.546801,639,武汉万顺住宿,武昌区
114.345535,30.595164,640,武汉住家公寓,武昌区
114.295186,30.548037,641,玖烛民宿,武昌区
114.329827,30.571813,642,武房网商务酒店(湖北大学店),武昌区
114.333094,30.536622,643,新新青年旅舍(武汉中南路地铁站店),武昌区
114.318479,30.537527,644,新时空商务酒店(武昌火车站黄鹤楼店),武昌区
114.342799,30.582564,645,武汉MAX电竞酒店,武昌区
114.334785,30.538814,646,武汉家梦出租屋,武昌区
114.317454,30.531294,647,武汉融舍酒店式公寓,武昌区
114.325539,30.536592,648,雅斯特国际酒店(武汉中南地铁站店),武昌区
114.334937,30.587021,649,武汉欣桂缘综合商务酒店,武昌区
114.296234,30.542284,650,武汉吉祥商务宾馆,武昌区
114.34043,30.595676,651,武汉乔希尔滨江假日酒店,武昌区
114.310655,30.564911,652,九尾狐艺术酒店武汉积玉桥万达店,武昌区
114.300962,30.545995,653,瑞微酒店,武昌区
114.315121,30.526365,654,武汉福缘恋客栈,武昌区
114.341849,30.555750,655,武汉友谊公寓,武昌区
114.334311,30.537910,656,武汉纽赛尔酒店,武昌区
114.318845,30.545559,657,美居酒店(武汉黄鹤楼店),武昌区
114.340328,30.550661,658,西域楚商大酒店(楚河汉街店),武昌区
114.348503,30.584284,659,武汉袋鼠公寓(武汉群星城店),武昌区
114.334371,30.531194,660,武汉艾特电竞公寓,武昌区
114.307837,30.539211,661,武汉君泰快捷宾馆,武昌区
114.324554,30.536872,662,新大地酒店,武昌区
114.320752,30.527983,663,武汉铁路旅馆,武昌区
114.360515,30.574554,664,武汉伯瑞影院公寓,武昌区
114.309864,30.532927,665,武汉山水富丽华酒店,武昌区
114.320126,30.574539,666,梵沐霖城市公寓(武汉三角路绿地店),武昌区
114.341600,30.555592,667,武汉艾米莉民宿,武昌区
114.363927,30.553915,668,东湖宾馆,武昌区
114.336400,30.558104,669,艾欧尼亚电竞酒店(武汉楚河汉街万达店),武昌区
114.336024,30.530905,670,武汉东木林小栈,武昌区
114.300232,30.548711,671,武汉新成开商务宾馆(户部巷司门口店),武昌区
114.311172,30.565855,672,武汉走进远方公寓(和平大道分店),武昌区
114.308730,30.533878,673,金顺宾馆,武昌区
114.299946,30.539518,674,纽宾凯朗逸酒店(武汉黄鹤楼音乐学院店),武昌区
114.307779,30.539885,675,武汉红洋旅馆,武昌区
114.311253,30.566007,676,武汉猫窝公寓(积玉桥店)(5号店),武昌区
114.325306,30.532838,677,武汉怡美宾馆,武昌区
114.317522,30.532073,678,武汉128阳光公寓,武昌区
114.318508,30.537538,679,新空间商务酒店,武昌区
114.319154,30.533025,680,武汉四季旅店,武昌区
114.306043,30.562154,681,尚玺江景酒店(积玉桥临江店),武昌区
114.333396,30.544184,682,洪广大酒店,武昌区
114.310022,30.547369,683,武汉桂宾旅馆,武昌区
114.299068,30.549699,684,清能清江饭店(武汉黄鹤楼店),武昌区
114.339326,30.54198,685,九州通衢大酒店,武昌区
114.322019,30.583121,686,武汉西兰蒂亚酒店,武昌区
114.368954,30.574591,687,武汉东湖丽景酒店,武昌区
114.318592,30.533156,688,武汉长江旅馆,武昌区
114.337397,30.557715,689,武汉树懒呆呆酒店公寓,武昌区
114.326194,30.509884,690,欣馨公寓,武昌区
114.318683,30.532797,691,武汉馨洁家庭旅馆,武昌区
114.319301,30.526492,692,武汉芳姐住宿,武昌区
114.317718,30.538630,693,武汉仙源旅馆,武昌区
114.328244,30.578109,694,武汉武昌航海招待所,武昌区
114.341851,30.555770,695,武汉琪琪民宿,武昌区
114.318780,30.536642,696,武汉滨海招待所,武昌区
114.317549,30.533484,697,武汉好运来民宿,武昌区
114.314533,30.526191,698,静悦招待所(武昌火车站店),武昌区
114.318521,30.537538,699,汝家自助公寓(武汉千家街店),武昌区
114.336683,30.558154,700,景悦公寓酒店(武汉楚河汉街店),武昌区
114.320633,30.539012,701,武汉武建旅馆,武昌区
114.355373,30.571642,702,武汉世纪民宿,武昌区
114.336570,30.558037,703,开元曼居·武汉汉街万达广场店,武昌区
114.298169,30.543064,704,纽宾凯艺术精品酒店(武汉户部巷店),武昌区
114.317237,30.537185,705,武汉中山宾馆,武昌区
114.299571,30.543551,706,武汉艾丽菲尔酒店,武昌区
114.317083,30.535484,707,武汉武昌平安旅馆,武昌区
114.301298,30.545748,708,汉美宜家宾馆,武昌区
114.335066,30.530825,709,武汉融通中南花园酒店,武昌区
114.324724,30.546038,710,维也纳酒店(民主路店),武昌区
114.342470,30.585965,711,佳源主题公寓,武昌区
114.342625,30.586407,712,武汉华辰宾馆,武昌区
114.36474,30.572579,713,汉庭酒店(武汉东湖店),武昌区
114.333164,30.583332,714,武汉市湖北大学如家公寓(东门店),武昌区
114.319073,30.536575,715,武汉金福来旅馆,武昌区
114.340598,30.591431,716,武汉有時民宿,武昌区
114.307914,30.56443,717,武汉富力威斯汀酒店,武昌区
114.305457,30.555753,718,武汉陌上流年民宿(临江大道四马路分店),武昌区
114.331193,30.535564,719,如家精选酒店(武汉中南地铁站店),武昌区
114.309650,30.544658,720,武汉倾城小酒馆民谣民宿,武昌区
114.335976,30.558345,721,武汉悦思家民宿,武昌区
114.312728,30.568725,722,武汉江南亘星酒店,武昌区
114.337179,30.557771,723,武汉美伦枫尚酒店式公寓,武昌区
114.309670,30.563678,724,千百度艺术公寓(武汉积玉桥万达店),武昌区
114.320126,30.520966,725,华美达安可酒店,武昌区
114.303587,30.542600,726,武汉半夏拾光青年民宿,武昌区
114.331092,30.532624,727,全季酒店(武汉武昌中南路店),武昌区
114.336169,30.551795,728,东湖大厦,武昌区
114.330409,30.579826,729,武汉鑫曼宾馆,武昌区
114.333881,30.538209,730,建国璞隐酒店(武汉中南路店),武昌区
114.320542,30.528169,731,武汉旅途旅店,武昌区
114.336746,30.547315,732,洪山宾馆,武昌区
114.354173,30.581478,733,武汉旅行归途-旅岛公寓(5号店),武昌区
114.356156,30.579437,734,武汉光明万丽酒店,武昌区
114.306108,30.562087,735,美橙一线江景酒店(武汉积玉桥锦坤公寓店),武昌区
114.337364,30.557758,736,万达环球精选酒店(楚河汉街店),武昌区
114.368262,30.5723,737,蘭廷魔方酒店(武汉东湖梨园地铁站店),武昌区
114.314795,30.526516,738,吉庆酒店(武汉武昌火车站店),武昌区
114.336707,30.556728,739,金贵源国际酒店,武昌区
114.337390,30.557704,740,武汉The One酒店式公寓,武昌区
114.311233,30.565861,741,武汉黑比诺公寓积玉桥万达店(4号店),武昌区
114.342625,30.538805,742,宜尚酒店(武汉大学洪山广场地铁站店),武昌区
114.324958,30.532863,743,武汉鑫盈宾馆,武昌区
114.297377,30.537301,744,武汉瑞鑫时尚旅店,武昌区
114.33699,30.548065,745,如家商旅酒店(武汉楚河汉街洪山广场地铁站店),武昌区
114.339759,30.545782,746,军威大酒店,武昌区
114.319990,30.574557,747,爱情鸟情侣度假屋(武汉三角路店),武昌区
114.321552,30.538482,748,弘达旅馆(武汉武珞路店),武昌区
114.334174,30.531093,749,武汉有梦live民宿,武昌区
114.317652,30.532148,750,武汉一缕阳光公寓,武昌区
114.309219,30.539413,751,武汉洋洋旅馆,武昌区
114.345984,30.552395,752,富力万达嘉华酒店,武昌区
114.334384,30.531058,753,武汉知君公寓(分店),武昌区
114.325735,30.581105,754,7天酒店(武汉徐东湖北大学店),武昌区
114.336270,30.557990,755,贝罗酒店公寓(武汉楚河汉街万达店),武昌区
114.347398,30.552464,756,武汉万达瑞华酒店,武昌区
114.307329,30.537573,757,武汉顺禾旅馆,武昌区
114.339031,30.584657,758,武汉悦舍艺术影院公寓,武昌区
114.361912,30.575392,759,丽橙酒店·逸(武汉东湖楚河汉街岳家嘴地铁站店),武昌区
114.296627,30.540884,760,汉枫主题酒店,武昌区
114.31645,30.560454,761,武汉友谊国际酒店,武昌区
114.339814,30.554040,762,武汉汇廷精选酒店(楚河汉街店),武昌区
114.338578,30.584519,763,武汉黑桃皇后酒店,武昌区
114.36372,30.564891,764,楚天粤海国际大酒店,武昌区
114.375632,30.559572,765,湖滨客舍,武昌区
114.306541,30.562662,766,武汉舍江景公寓,武昌区
114.373612,30.564008,767,武汉翠柳村客舍,武昌区
114.319080,30.537500,768,武汉前进旅社,武昌区
114.344418,30.584156,769,竹园公寓,武昌区
114.337191,30.557758,770,武汉江城美寓影院酒店(楚河汉街店),武昌区
114.360720,30.574694,771,武汉天秀精品酒店式公寓,武昌区
114.337481,30.525762,772,瑞景凯瑞精选酒店(武汉大学东湖街道口店),武昌区
114.370604,30.529591,773,军悦假日酒店(武汉武大东湖店),武昌区
114.323163,30.520119,774,悦凯酒店(武汉武昌火车站店),武昌区
114.353883,30.569467,775,莱斯国际酒店,武昌区
114.296965,30.527445,776,鑫梦缘主题酒店,武昌区
114.347626,30.548944,777,武汉景聚宾馆,武昌区
114.317877,30.531267,778,武汉牛头人电竞公寓,武昌区
114.371792,30.531595,779,武汉红叶民宿,武昌区
114.313833,30.524761,780,锦明旅社,武昌区
114.317873,30.574445,781,九龙商务酒店,武昌区
114.313594,30.532877,782,武汉鑫尚捷酒店,武昌区
114.309615,30.540059,783,速8酒店(武汉黄鹤楼户部巷店),武昌区
114.323305,30.519991,784,东方茉莉精品酒店,武昌区
114.336493,30.558145,785,武汉异乡港湾公寓,武昌区
114.316745,30.533805,786,武汉万金国际公寓(中山路分店),武昌区
114.336398,30.557994,787,武汉金冠精品·影院酒店公寓,武昌区
114.340172,30.553070,788,甲乙丙丁公寓(武汉楚河汉街店),武昌区
114.341782,30.555530,789,武汉汉街1号公寓,武昌区
114.307946,30.552178,790,树与海青旅客栈(武汉昙华林店),武昌区
114.340596,30.591431,791,武汉昔拾民宿,武昌区
114.317305,30.531728,792,武汉糯米公寓(一号店),武昌区
114.339220,30.552985,793,武汉蟹蟹里·民宿(蓝调步行街分店),武昌区
114.294902,30.54703,794,天马·城市设计酒店(户部巷店),武昌区
114.345712,30.537440,795,大唐商务酒店(八一路店),武昌区
114.303115,30.539416,796,77连锁酒店(武汉首义园店),武昌区
114.330237,30.549387,797,武汉圣海酒店(武昌火车站店),武昌区
114.320298,30.574749,798,武汉小米公寓,武昌区
114.311008,30.565883,799,武汉有梦Live民宿(24号店),武昌区
114.309598,30.563808,800,武汉嘉年华时尚公寓(临江大道分店),武昌区
114.303575,30.539699,801,武汉祥和人生酒店,武昌区
114.337349,30.557661,802,雅居酒店公寓(武汉万达店),武昌区
114.298379,30.548842,803,武汉品游酒店,武昌区
114.309694,30.521909,804,蓬源宾馆(武汉武昌火车站店),武昌区
114.317330,30.531394,805,武汉维尔斯酒店公寓,武昌区
114.348536,30.584448,806,都莱精品公寓,武昌区
114.296280,30.540382,807,路客精品民宿BD3230,武昌区
114.336484,30.558114,808,驿旅阳光酒店公寓,武昌区
114.329567,30.574356,809,武汉路客民宿BI5790,武昌区
114.309630,30.563609,810,杰西卡酒店公寓,武昌区
114.317489,30.562350,811,武汉路客精品民宿,武昌区
114.320053,30.575573,812,武车公寓,武昌区
114.330785,30.580001,813,豆豆智慧旅馆(湖北大学店),武昌区
114.339357,30.585525,814,武汉梦享宜家公寓(福客茂店),武昌区
114.319190,30.572145,815,武汉品质两居公寓,武昌区
114.354493,30.569527,816,武汉清居·贰公寓,武昌区
114.321257,30.578692,817,武汉梅小越民宿(和平大道分店),武昌区
114.351736,30.600367,818,武汉路客BC1920精品民宿,武昌区
114.305522,30.555806,819,武汉杜林公寓(中山路分店),武昌区
114.297451,30.537106,820,武汉公众旅馆,武昌区
114.300748,30.546044,821,鑫宇宾馆(民主路店),武昌区
114.318541,30.537512,822,武汉NOWLESS都庭公寓(4号店),武昌区
114.329941,30.522121,823,津之源酒店,武昌区
114.342024,30.555932,824,悠度连锁青年公寓(楚河汉街店),武昌区
114.336866,30.532228,825,武汉瑞丰大酒店,武昌区
114.339198,30.584588,826,武汉锦程影院公寓,武昌区
114.349243,30.606016,827,金琳旅馆,武昌区
114.321023,30.522312,828,武汉园林人家.武昌火车站公寓(4号店),武昌区
114.338974,30.584773,829,武汉欣荣影院公寓,武昌区
114.316661,30.558934,830,武汉路客民宿BE2780,武昌区
114.332215,30.521750,831,武汉轻奢印象派公寓(5号店),武昌区
114.316453,30.554226,832,武汉金泉书院公寓(公正路分店),武昌区
114.329833,30.540215,833,武汉扛着棒棒糖闯天下公寓,武昌区
114.315616,30.557532,834,武汉Amel公寓,武昌区
114.279388,30.505667,835,武汉悠家客公寓,武昌区
114.328841,30.530164,836,中南SOHO公寓,武昌区
114.330784,30.522760,837,武汉爱摩依依民宿(涂家岭路店),武昌区
114.296377,30.551650,838,武汉乐舍公寓(都府堤路分店),武昌区
114.334331,30.531056,839,武汉房东妍君公寓,武昌区
114.339738,30.555685,840,武汉待宿兮公寓(8号店),武昌区
114.316235,30.559475,841,武汉葡萄提子公寓,武昌区
114.342156,30.586326,842,武汉洪山温馨住宿,武昌区
114.316253,30.559490,843,武汉云享空间公寓(友谊大道分店),武昌区
114.327332,30.509887,844,宏源酒店公寓(武汉理工大西门店),武昌区
114.337322,30.557890,845,平行世界湖景酒店(武汉楚河汉街店),武昌区
114.317608,30.538631,846,武汉三星旅店,武昌区
114.354432,30.572700,847,武汉星空有家公寓(汐湖公园分店),武昌区
114.346944,30.577348,848,武汉筑民宿武昌(徐东大街分店),武昌区
114.372040,30.531652,849,武汉知音住宿,武昌区
114.331161,30.580432,850,武汉昔時民宿,武昌区
114.302800,30.534528,851,新茹家宾馆(复兴路店),武昌区
114.315602,30.532727,852,鑫兴宾馆,武昌区
114.342945,30.585521,853,如佳住宿,武昌区
114.342837,30.578409,854,江南商务宾馆(湖北大学店),武昌区
114.352337,30.600163,855,喜莱主题宾馆,武昌区
114.316245,30.557849,856,路客精品民宿BG6030,武昌区
114.324324,30.575599,857,武汉悦汇酒店,武昌区
114.344298,30.558039,858,武汉老胡同民宿(武汉总店)(41号店),武昌区
114.334316,30.531044,859,武汉行宿·乐乐公寓(丁字桥路分店),武昌区
114.332749,30.536074,860,武汉中南商圈温馨一居公寓,武昌区
114.308619,30.552408,861,武汉熊启英公寓(三义村分店),武昌区
114.308076,30.540155,862,武汉郡廷民宿(武珞路辅路分店),武昌区
114.372467,30.576285,863,武汉清居贰特色民宿(二环线分店),武昌区
114.358760,30.562721,864,武汉悠家锦绣江南408公寓,武昌区
114.360580,30.574587,865,武汉王大懒公寓(中北路分店),武昌区
114.309638,30.563596,866,武汉房东稳公寓(和平大道分店),武昌区
114.334412,30.531199,867,武汉洋洋公寓,武昌区
114.310482,30.511966,868,武汉Miazhang公寓,武昌区
114.316031,30.554185,869,武汉大学城带浴缸公寓,武昌区
114.334378,30.531190,870,武汉漫屋House公寓,武昌区
114.322378,30.575844,871,武汉原宿cici公寓,武昌区
114.334378,30.531190,872,武汉西柚掌柜公寓(丁字桥路分店),武昌区
114.333158,30.535835,873,武汉小河马の民宿(3号店),武昌区
114.311030,30.526458,874,武汉88时光民宿,武昌区
114.334422,30.531145,875,武汉慢悠武昌站/中南路/近地铁/精致一居公寓,武昌区
114.331137,30.580574,876,武汉沐睿籽精品民宿(三角路分店),武昌区
114.350817,30.579625,877,武汉轻奢法式公寓,武昌区
114.340737,30.591180,878,武汉一鹿公寓(恵安路分店),武昌区
114.334331,30.531058,879,武汉聚开心轰趴公寓(丁字桥路分店),武昌区
114.340272,30.553032,880,武汉悠悠游公寓,武昌区
114.343826,30.557852,881,武汉蟹蟹里·民宿,武昌区
114.317295,30.531728,882,武汉君羊月生公寓,武昌区
114.328834,30.530164,883,武汉多力特小屋(文安街分店),武昌区
114.318299,30.531520,884,武汉武昌火车站候鸟驿站民宿(2号店),武昌区
114.317500,30.532270,885,武汉贺章瑶公寓,武昌区
114.334316,30.531044,886,武汉一周先生公寓(丁字桥路分店),武昌区
114.325260,30.542579,887,武汉小茶馆house公寓(中南二路分店),武昌区
114.354425,30.537319,888,武汉小屋店长公寓,武昌区
114.334311,30.531044,889,武汉罗西公寓(丁字桥路分店),武昌区
114.355736,30.559973,890,武汉销品茂俊逸民宿(梦幻海洋游乐园分店),武昌区
114.343826,30.557853,891,武汉『小谢的家』公寓(3号店),武昌区
114.313591,30.557768,892,武汉陶陶家民宿,武昌区
114.331861,30.583397,893,武汉燕子高飞公寓,武昌区
114.317877,30.531267,894,武汉黄鹤阁Amanda公寓,武昌区
114.317606,30.531647,895,武汉优间17万金国际公寓,武昌区
114.334378,30.531199,896,武汉畅宿公寓(2号店),武昌区
114.306541,30.562662,897,武汉嗖嗖民宿(临江大道分店),武昌区
114.342377,30.585886,898,武汉F9情侣主题民宿(12号店),武昌区
114.288126,30.514017,899,武汉欢乐花园JIAOYE的美屋公寓(武金堤路分店),武昌区
114.252537,30.623650,900,武汉锦绣宾馆,江汉区
114.251723,30.612218,901,武汉如家主题酒店(汉口火车站店),江汉区
114.274780,30.581436,902,新时代酒店公寓(武汉武广店),江汉区
114.281117,30.580963,903,7天连锁酒店(武汉友谊路轻轨站店),江汉区
114.254273,30.612906,904,怡景果然主题酒店,江汉区
114.281505,30.572529,905,百时快捷酒店(武汉汉正街店),江汉区
114.262714,30.584116,906,如家派柏·云酒店(武汉同济医院航空路店),江汉区
114.289119,30.576887,907,锦江之星(武汉江汉路地铁站大洋百货店),江汉区
114.276332,30.590578,908,贵天乙商务酒店,江汉区
114.264927,30.617041,909,易佰酒店(武汉汉口火车站店),江汉区
114.268085,30.585774,910,花儿宾馆(武汉西园商业街店),江汉区
114.283326,30.582292,911,希尔曼咖啡花园酒店(武汉亚心医院店),江汉区
114.276859,30.578078,912,如家酒店(武汉协和医院恒隆广场店),江汉区
114.281277,30.572479,913,锦江之星酒店(武汉中山大道六渡桥地铁站店),江汉区
114.261428,30.631487,914,武汉白云旅馆,江汉区
114.293994,30.578506,915,7天连锁酒店(武汉江汉路地铁站店),江汉区
114.251086,30.611803,916,武汉如家便捷酒店公寓(汉口火车站店),江汉区
114.270105,30.619389,917,武汉蓝顿酒店公寓,江汉区
114.251701,30.612066,918,爱情公寓(武汉汉口火车站店),江汉区
114.254268,30.613525,919,橙子水晶连锁酒店(武汉汉口火车站店),江汉区
114.255022,30.613124,920,如家快捷酒店公寓,江汉区
114.26222,30.603787,921,7天连锁酒店(武汉汉口火车站范湖地铁站店),江汉区
114.253716,30.613265,922,乐动快捷酒店(武汉汉口火车站店),江汉区
114.267578,30.626091,923,熙悦阳光连锁酒店(汉口火车站中心医院店),江汉区
114.277371,30.580223,924,武汉江都商务宾馆,江汉区
114.274231,30.581506,925,城市便捷酒店(武汉国际广场协和医院店),江汉区
114.243662,30.605478,926,V9连锁酒店(武汉复兴村店),江汉区
114.281941,30.575895,927,7天连锁酒店(武汉中山大道六渡桥地铁站店),江汉区
114.258266,30.616814,928,财广宾馆(武汉汉口火车站店),江汉区
114.251628,30.612090,929,武汉阳光发展公寓酒店,江汉区
114.255057,30.613087,930,武汉汉口快捷公寓,江汉区
114.251842,30.612076,931,77城市酒店,江汉区
114.258676,30.616934,932,易佰良品酒店(汉口火车站广场店),江汉区
114.272547,30.614866,933,如家酒店(武汉唐家墩地铁站万达广场店),江汉区
114.270783,30.611074,934,果然主题酒店(武汉菱角湖万达店),江汉区
114.248129,30.610806,935,武汉糖果果青年旅舍(佳兴苑店),江汉区
114.293927,30.569828,936,城市便捷酒店(武汉江汉路王家巷码头店),江汉区
114.283193,30.576661,937,武汉皇庭旅馆,江汉区
114.283201,30.584311,938,武汉77连锁酒店(循礼门单洞街花市店),江汉区
114.261337,30.588780,939,新龙宾馆(同济医院青年路地铁站店),江汉区
114.271207,30.590362,940,武汉万珈宾馆,江汉区
114.288475,30.580352,941,7天优品酒店(武汉江汉路地铁站步行街店),江汉区
114.280961,30.610795,942,武汉摩尔优品宾馆,江汉区
114.258098,30.617936,943,V9假日连锁酒店(武汉汉口火车站财神广场店),江汉区
114.240997,30.626589,944,如家酒店·neo(武汉民航小区长港路地铁站店),江汉区
114.271414,30.613494,945,绿融酒店(武汉菱角湖万达广场店),江汉区
114.265593,30.616288,946,武汉佳成旅馆,江汉区
114.295101,30.577869,947,天鹅恋酒店(武汉汉口江滩江汉路地铁站店),江汉区
114.271181,30.592315,948,武汉江汉鑫源旅馆,江汉区
114.265030,30.602484,949,汉悦精品酒店(武汉范湖地铁站店),江汉区
114.284980,30.580426,950,武汉中兴招待所,江汉区
114.279253,30.573337,951,武汉v9假日连锁酒店,江汉区
114.247598,30.610726,952,中知图酒店,江汉区
114.266851,30.588480,953,武汉中奇旅店,江汉区
114.285315,30.571315,954,武汉民族商务旅馆,江汉区
114.254280,30.612963,955,武汉火车站馨如家公寓,江汉区
114.278008,30.575753,956,布町恋艺术精品酒店(江汉路步行街店),江汉区
114.250732,30.613229,957,武汉初相见青年旅舍,江汉区
114.265767,30.593799,958,武汉爲你留灯青年旅舍,江汉区
114.261961,30.588696,959,莫泰酒店(武汉青年路地铁站店),江汉区
114.274435,30.582032,960,汉庭酒店(武汉中山公园地铁站店),江汉区
114.275255,30.581736,961,武汉花都客房,江汉区
114.251551,30.612154,962,武汉福星发展公寓酒店,江汉区
114.247995,30.610624,963,洪发酒店（武汉汉口火车站店）,江汉区
114.287037,30.581751,964,莱克快捷酒店(江汉路店),江汉区
114.279616,30.577523,965,武汉友谊宾馆,江汉区
114.254408,30.613234,966,汉庭酒店(武汉汉口火车站地铁站店),江汉区
114.267398,30.586981,967,禾丽简爱酒店·精选,江汉区
114.285728,30.582463,968,骏怡连锁酒店(武汉江汉路步行街店),江汉区
114.292810,30.578030,969,武汉卡莎公寓式酒店(江汉路步行街店),江汉区
114.260981,30.637284,970,武汉隆祥宾馆,江汉区
114.251740,30.612283,971,武汉暖如家旅馆,江汉区
114.282677,30.580877,972,77连锁宾馆(武汉前进二路店),江汉区
114.280122,30.606866,973,怡莱酒店(武汉香港路地铁站店),江汉区
114.263145,30.606095,974,武汉惠誉嘉逸酒店,江汉区
114.258263,30.617897,975,77精选酒店(汉口火车站店),江汉区
114.26637,30.610492,976,锦江之星(武汉菱角湖万达店),江汉区
114.292738,30.578038,977,武汉中央荣御爱情公寓,江汉区
114.273952,30.587937,978,汉庭酒店(武汉新华路协和医院店),江汉区
114.282536,30.606791,979,武汉乐佳酒店,江汉区
114.288332,30.580953,980,武汉大洋旅馆,江汉区
114.260281,30.617586,981,武汉简舍青年旅舍,江汉区
114.254248,30.612857,982,茉莉花开公寓式酒店,江汉区
114.280137,30.611573,983,武汉颐馨商务宾馆,江汉区
114.254231,30.612862,984,怡景静馨公寓(武汉豪华店),江汉区
114.247443,30.622152,985,精途酒店(武汉汉口火车站店),江汉区
114.263212,30.588104,986,都市驿家时尚旅店(武汉万松园店),江汉区
114.260037,30.633185,987,城市便捷酒店(杨汊湖地铁站店),江汉区
114.246819,30.622181,988,武汉鑫源商务宾馆,江汉区
114.270405,30.582061,989,武汉江汉温馨公寓,江汉区
114.250385,30.611878,990,丽枫酒店(武汉泛海CBD店),江汉区
114.262411,30.588227,991,帆鸣主题酒店(武汉同济医院青年路地铁站店),江汉区
114.259287,30.617915,992,武汉青庐青年旅舍,江汉区
114.248885,30.613406,993,武汉恩典365酒店公寓,江汉区
114.288923,30.576382,994,城市便捷酒店(武汉江汉路步行街地铁站店),江汉区
114.275263,30.605043,995,如家酒店·neo(武汉菱角湖地铁站万达广场店),江汉区
114.254296,30.617039,996,城市便捷酒店(武汉汉口火车站西广场店),江汉区
114.267112,30.617584,997,城市便捷酒店(武汉汉口火车站顶琇国际店),江汉区
114.277619,30.581206,998,悦酒店(武汉武展协和医院店),江汉区
114.254823,30.613024,999,汉口6+1酒店公寓,江汉区
114.263781,30.591467,1000,城市便捷酒店(武汉万松园王家墩东地铁站店),江汉区
114.271375,30.616779,1001,武汉悦翔酒店,江汉区
114.260892,30.622095,1002,武汉江汉宇坤宾馆,江汉区
114.249650,30.613494,1003,武汉星空之旅青年旅舍,江汉区
114.251663,30.612146,1004,武汉优品快捷公寓,江汉区
114.251438,30.612052,1005,发展阳光酒店公寓,江汉区
114.251663,30.612146,1006,武汉瀚庭快捷民宿,江汉区
114.276051,30.579057,1007,7天连锁酒店(武汉国际会展中心店),江汉区
114.251230,30.612426,1008,武汉江锋青年公寓,江汉区
114.251605,30.623450,1009,武汉沃峰宾馆,江汉区
114.260186,30.586620,1010,武汉舒雅旅馆,江汉区
114.289370,30.579598,1011,城市便捷酒店(武汉江汉路佳丽广场店),江汉区
114.260387,30.625874,1012,武汉万丰宾馆,江汉区
114.281585,30.575989,1013,武汉西子湖宾馆,江汉区
114.258928,30.630065,1014,沿海·城市便捷连锁酒店,江汉区
114.255099,30.613610,1015,武汉金涛鸿宇鸿宾馆,江汉区
114.274483,30.581426,1016,武汉新阳光酒店式公寓(大飘窗店),江汉区
114.292854,30.577948,1017,武汉叶子艺术酒店公寓,江汉区
114.254224,30.612854,1018,武汉怡景茉莉花开主题公寓,江汉区
114.282349,30.606110,1019,豪庭阁影院酒店公寓(武汉香港路地铁站店),江汉区
114.254178,30.630950,1020,武汉全鑫宾馆,江汉区
114.264167,30.588811,1021,武汉520love主题酒店,江汉区
114.294677,30.578223,1022,武汉万客来旅馆,江汉区
114.251057,30.612425,1023,武汉城市阳光酒店,江汉区
114.254159,30.613220,1024,武汉月季花宾馆,江汉区
114.271769,30.598549,1025,武汉春天城市酒店,江汉区
114.280125,30.581354,1026,瑞祥商务酒店(武汉亚心医院店),江汉区
114.293358,30.578218,1027,武汉金宝利酒店,江汉区
114.272248,30.612224,1028,武汉亿缘商务旅馆,江汉区
114.250970,30.613213,1029,武汉常福来旅馆,江汉区
114.278112,30.577316,1030,盛华酒店(武汉国际会展中心江汉路店),江汉区
114.249857,30.613880,1031,武汉不期而遇青年旅舍,江汉区
114.254989,30.613078,1032,武汉心乐宾馆,江汉区
114.269085,30.581923,1033,莫泰酒店(武汉协和医院中山公园地铁站武广店),江汉区
114.251051,30.612291,1034,汉口丽枫酒店公寓(汉口火车站店),江汉区
114.254921,30.613049,1035,汉口源圆酒店式公寓(汉口火车站店),江汉区
114.233627,30.620668,1036,武汉桔子·思维同创影院酒店(汉口火车站园博园店),江汉区
114.252578,30.613654,1037,武汉博鑫宾馆,江汉区
114.241321,30.625849,1038,汉庭酒店(武汉民航小区店),江汉区
114.254420,30.599929,1039,优居自助酒店(武汉泛海CBD店),江汉区
114.251414,30.612472,1040,武汉橙子时尚酒店,江汉区
114.264208,30.585324,1041,尚优公寓(武汉爱特城店),江汉区
114.252570,30.614640,1042,铂莱华快捷酒店(武汉汉口火车站地铁站店),江汉区
114.277282,30.600237,1043,汉庭酒店(武汉取水楼地铁站店),江汉区
114.283093,30.571282,1044,天羽宾馆(武汉友谊南路店),江汉区
114.251491,30.612156,1045,叶子时尚公寓(武汉汉口站店),江汉区
114.251095,30.612410,1046,武汉美住·城市印象公寓,江汉区
114.252391,30.611355,1047,武汉城市钻石联盟酒店,江汉区
114.269643,30.603747,1048,汉庭酒店(武汉菱角湖万达店),江汉区
114.251615,30.612081,1049,武汉丽凯公寓酒店,江汉区
114.291623,30.579839,1050,武汉缘艺精品酒店,江汉区
114.280815,30.579908,1051,优程酒店(武汉江汉路店),江汉区
114.254533,30.617102,1052,嘉仕庭酒店(武汉汉口火车站店),江汉区
114.250621,30.612970,1053,晨航旅馆(武汉汉口火车站店),江汉区
114.26967,30.593613,1054,V9假日酒店(武汉万松园美食街店),江汉区
114.288880,30.574188,1055,武汉美菲尔宾馆,江汉区
114.287741,30.576457,1056,禾里酒店(江汉路步行街店),江汉区
114.277973,30.583124,1057,金茂宾馆(解放大道店),江汉区
114.288166,30.583199,1058,武汉扎西的家青旅,江汉区
114.260280,30.617630,1059,武汉翼栈青年之旅,江汉区
114.282972,30.605688,1060,武汉千寻影院公寓,江汉区
114.281529,30.579219,1061,武汉欣悦宾馆,江汉区
114.259514,30.618158,1062,武汉Little House城市青年旅店,江汉区
114.270404,30.582061,1063,武汉江汉阳光住宿,江汉区
114.251730,30.612150,1064,武汉如家胜捷酒店公寓,江汉区
114.284495,30.575459,1065,易捷酒店(武汉六渡桥店),江汉区
114.291003,30.576218,1066,武汉佳美旅馆,江汉区
114.254841,30.612994,1067,武汉怡婷宾馆,江汉区
114.251551,30.612038,1068,城市假日酒店公寓(汉口火车站店),江汉区
114.251810,30.612510,1069,武汉拾年太空舱青年旅舍,江汉区
114.254207,30.612953,1070,艾美假日酒店公寓,江汉区
114.268416,30.590387,1071,武汉公园时尚公寓,江汉区
114.288734,30.580195,1072,精途酒店(武汉江汉路步行街店),江汉区
114.251187,30.612446,1073,武汉江峰公寓,江汉区
114.277765,30.578473,1074,OYO博爱豪泰主题宾馆(友谊路地铁站自治街店),江汉区
114.260111,30.618253,1075,武汉青尘青年旅舍,江汉区
114.251093,30.612289,1076,城市民宿(武汉汉口火车站店),江汉区
114.271020,30.603528,1077,雅斯特酒店(武汉万达菱角湖地铁站店),江汉区
114.251090,30.612341,1078,武汉七天假日公寓酒店,江汉区
114.286153,30.582316,1079,武汉顺旅时空太空舱酒店,江汉区
114.283601,30.576814,1080,七天乐快捷酒店(前进一路店),江汉区
114.254969,30.613043,1081,武汉时光纪主题青旅(汉口火车站店),江汉区
114.292688,30.578101,1082,罗曼轻奢酒店(武汉江汉路万达广场店),江汉区
114.254211,30.613053,1083,武汉hclxiansheng武汉海悦公寓,江汉区
114.278142,30.576268,1084,武汉汉都色彩宾馆,江汉区
114.258680,30.616535,1085,城市便捷酒店(武汉汉口火车站地铁站店),江汉区
114.282817,30.580597,1086,武汉华丽时尚客栈,江汉区
114.251206,30.612454,1087,武汉锋尚公寓,江汉区
114.251091,30.612203,1088,武汉城市酒店公寓,江汉区
114.260364,30.617964,1089,武汉东方逸境青年旅舍,江汉区
114.273743,30.601144,1090,城市便捷酒店(武汉北湖店),江汉区
114.251171,30.612459,1091,武汉江峰温馨公寓,江汉区
114.241991,30.625921,1092,7天优品武汉民航小区长港路地铁站店,江汉区
114.254861,30.612941,1093,武汉君琳宾馆,江汉区
114.233656,30.620632,1094,武汉柚米国际社区影院酒店(园博园店),江汉区
114.280373,30.581562,1095,谷曼连锁酒店,江汉区
114.287009,30.581553,1096,风尚酒店(武汉江汉路步行街店),江汉区
114.282109,30.583956,1097,武汉美联假日酒店(市中心店),江汉区
114.271736,30.603392,1098,汉庭酒店(武汉汉口新华路店),江汉区
114.253990,30.613203,1099,怡景茉莉花开宾馆(武汉汉口火车站店),江汉区
114.251698,30.612118,1100,武汉市假日酒店公寓(汉口火车站店),江汉区
114.272677,30.592033,1101,纽宾凯N+国际酒店,江汉区
114.233622,30.620492,1102,丽橙美居精品公寓,江汉区
114.292011,30.576208,1103,慢宿影院公寓(江汉路步行街店),江汉区
114.251188,30.612309,1104,常来公寓(武汉汉口火车站店),江汉区
114.263701,30.592952,1105,武汉青园宾馆,江汉区
114.277128,30.578276,1106,愉时尚精品酒店(武汉国际会展中心协和医院店),江汉区
114.254164,30.614301,1107,海友酒店(汉口火车站店),江汉区
114.254987,30.613339,1108,武汉陶源宾馆,江汉区
114.251701,30.612095,1109,武汉如星车站宾馆,江汉区
114.282486,30.574071,1110,优家连锁酒店(六渡桥地铁站店),江汉区
114.255070,30.613103,1111,武汉汉庭公寓,江汉区
114.266413,30.591308,1112,武汉盛鑫源旅馆,江汉区
114.270398,30.582054,1113,武汉佳园旅馆,江汉区
114.288462,30.574326,1114,武汉恒丰快捷旅馆,江汉区
114.269338,30.593921,1115,武汉天然居住宿,江汉区
114.251763,30.613458,1116,易捷城市酒店(武汉发展大道店),江汉区
114.251235,30.612434,1117,武汉江锋太空舱青年旅舍,江汉区
114.262717,30.589177,1118,武汉祥林旅馆,江汉区
114.271659,30.615562,1119,俪居美伦酒店(武汉菱角湖万达广场店),江汉区
114.279682,30.576063,1120,武汉美林乐时尚旅馆,江汉区
114.259298,30.617945,1121,武汉Oriental Paradise影院青旅,江汉区
114.269854,30.619435,1122,趣住酒店式公寓(武汉汉口火车站店),江汉区
114.251168,30.612446,1123,如家主题公寓(武汉汉口火车站店),江汉区
114.251581,30.612038,1124,武汉车站假日酒店(发展公寓店),江汉区
114.244555,30.624111,1125,武汉天赐宾馆,江汉区
114.258346,30.616702,1126,麗枫酒店(武汉汉口火车站店),江汉区
114.271848,30.599082,1127,星添元精选酒店(武汉新华路取水楼地铁站店),江汉区
114.260176,30.586229,1128,武汉鑫芳旅馆,江汉区
114.284806,30.574033,1129,城市便捷酒店(武汉江汉路六渡桥地铁站店),江汉区
114.233578,30.620653,1130,武汉Uhouse精品影院酒店,江汉区
114.255051,30.613180,1131,武汉汉口如家客栈,江汉区
114.266676,30.590576,1132,武汉龙文宾馆(万松园店),江汉区
114.250866,30.611529,1133,城市相约精品酒店(武汉汉口火车站店),江汉区
114.264521,30.585006,1134,寓米公寓(武汉青年路爱特城店),江汉区
114.247739,30.615236,1135,武汉思联花园城日租公寓,江汉区
114.273797,30.617889,1136,哈啰轻酒店(武汉唐家墩地铁站可寓店),江汉区
114.259194,30.617358,1137,武汉快乐之家民宿啊(11号店),江汉区
114.251754,30.612129,1138,武汉城市便捷假日酒店,江汉区
114.233824,30.620646,1139,武汉沫汐酒店,江汉区
114.260948,30.606531,1140,铂尔顿电竞影院公寓(武汉江宸天街店),江汉区
114.239420,30.627001,1141,慕义精选酒店(汉口火车站地铁站店),江汉区
114.251737,30.612183,1142,武汉福泰亲亲公寓,江汉区
114.279130,30.581018,1143,武汉福林商务宾馆,江汉区
114.251096,30.612366,1144,欣欣宾馆(武汉汉口火车站店),江汉区
114.249901,30.613400,1145,星辰太空舱青年公寓(武汉汉口火车站店),江汉区
114.283075,30.573534,1146,V9精选酒店,江汉区
114.284228,30.574570,1147,丽枫酒店(武汉江汉路六渡桥地铁站店),江汉区
114.264228,30.585223,1148,爱特酒店式公寓(武汉青年路地铁站店),江汉区
114.251613,30.612218,1149,武汉江锋温馨之家公寓,江汉区
114.254849,30.613010,1150,武汉名人公寓,江汉区
114.254843,30.613002,1151,武汉福缘之星酒店公寓,江汉区
114.250757,30.611462,1152,武汉七天公寓,江汉区
114.268418,30.622002,1153,城市便捷酒店(武汉汉口火车站唐家墩店),江汉区
114.259853,30.591665,1154,汉庭酒店(武汉王家墩东地铁站酒店),江汉区
114.254792,30.612974,1155,武汉君雅酒店公寓,江汉区
114.270108,30.619392,1156,东晨影院公寓(武汉汉口火车站店),江汉区
114.263364,30.628481,1157,梦7宾馆,江汉区
114.248043,30.622459,1158,简洛精选酒店(汉口火车站店),江汉区
114.279638,30.576440,1159,武汉洪鑫旅馆,江汉区
114.275392,30.582424,1160,武汉聚安世纪酒店,江汉区
114.254245,30.612842,1161,武汉汉口百合主题公寓,江汉区
114.258701,30.616942,1162,青桔酒店(武汉汉口火车地铁站店),江汉区
114.254221,30.612850,1163,武汉雅阁布舍公寓(3号店),江汉区
114.233605,30.620591,1164,武汉禧悦影院酒店,江汉区
114.251263,30.612321,1165,武汉江锋客栈,江汉区
114.269945,30.619463,1166,武汉薇图公寓式酒店,江汉区
114.265830,30.589091,1167,臻真爱情侣主题酒店(万松园美食街店),江汉区
114.275671,30.600050,1168,武汉玖鑫宾馆,江汉区
114.250684,30.613304,1169,武汉豪园家庭旅馆,江汉区
114.270917,30.603842,1170,诗语酒店(武汉菱角湖万达店),江汉区
114.251188,30.612414,1171,武汉如家欢乐公寓(2号店),江汉区
114.273324,30.600873,1172,武汉佳怡住宿,江汉区
114.290505,30.581271,1173,武汉5+2时尚宾馆(江汉路步行街店),江汉区
114.283514,30.576811,1174,喆啡酒店(武汉江汉路六渡桥地铁站店),江汉区
114.251554,30.611946,1175,武汉福星发展公寓酒店,江汉区
114.292182,30.576327,1176,宸軒影院公寓(武汉江汉路步行街店),江汉区
114.273390,30.604784,1177,江城之星酒店(武汉菱角湖万达地铁站店),江汉区
114.293213,30.577200,1178,武汉遇见青年旅舍,江汉区
114.288474,30.579431,1179,武汉心语主题宾馆,江汉区
114.271023,30.611626,1180,希岸酒店(武汉菱角湖万达广场店),江汉区
114.243366,30.605396,1181,缇米电竞酒店(复兴村店),江汉区
114.283574,30.581790,1182,武汉嘉悦旅馆,江汉区
114.255078,30.613117,1183,武汉江汉君悦宾馆,江汉区
114.254291,30.617030,1184,精途酒店(武汉汉口火车站西广场店),江汉区
114.292809,30.578000,1185,武汉尚客精品民宿,江汉区
114.274861,30.581415,1186,武汉舒服家美宿公寓,江汉区
114.259104,30.615827,1187,艺选·轻旅酒店（汉口火车站店）,江汉区
114.262310,30.614271,1188,武汉添雅1911酒店,江汉区
114.239126,30.626554,1189,武汉南翔旅馆,江汉区
114.270078,30.619545,1190,凯里亚德酒店(武汉汉口火车站发展大道店),江汉区
114.254714,30.599880,1191,玥呈云酒店(武汉泛海CBD店),江汉区
114.283931,30.576170,1192,泰安快捷旅馆(武汉六渡桥店),江汉区
114.255045,30.601106,1193,泛海国际酒店,江汉区
114.233579,30.620653,1194,武汉柚米影院酒店,江汉区
114.258653,30.612952,1195,武汉胖羊精品宾馆,江汉区
114.270119,30.619453,1196,荣耀世纪电竞酒店(武汉汉口火车站唐家墩店),江汉区
114.238805,30.626935,1197,武汉南航明珠酒店,江汉区
114.295442,30.577626,1198,Y2精品酒店(武汉江汉路步行街店),江汉区
114.254972,30.613661,1199,武汉欣雨公寓,江汉区
114.263026,30.628743,1200,梦岛主题酒店(武汉汉口火车站店),江汉区
114.249601,30.614125,1201,立客友青年旅社(武汉汉口店),江汉区
114.265480,30.597475,1202,罗马假日酒店(武汉西北湖店),江汉区
114.292802,30.578164,1203,拾光美客酒店式公寓(江汉路步行街店),江汉区
114.288179,30.580828,1204,水云岚酒店(武汉江汉路步行街店),江汉区
114.293660,30.577395,1205,iu酒店(江汉路步行街地铁站店),江汉区
114.271086,30.603229,1206,威斯特酒店(菱角湖地铁站店),江汉区
114.255012,30.613119,1207,武汉汉庭最美公寓酒店,江汉区
114.251226,30.612358,1208,77时尚酒店(武汉江峰大厦店),江汉区
114.275182,30.581700,1209,平安住宿(武汉协和医院店),江汉区
114.281540,30.583809,1210,城市便捷酒店(武汉江汉路循礼门地铁站店),江汉区
114.254199,30.612905,1211,武汉怡涛酒店(汉口火车站店),江汉区
114.252230,30.626423,1212,蔚徕酒店(武汉汉口火车站机场高速店),江汉区
114.273189,30.604700,1213,武汉悠家公寓,江汉区
114.251085,30.612287,1214,武汉520小时光公寓,江汉区
114.272850,30.605070,1215,武汉香田民宿,江汉区
114.261761,30.585903,1216,斯维登酒店(武汉航空路同济医科大学店),江汉区
114.254534,30.617118,1217,武汉中金泰富酒店,江汉区
114.293084,30.577346,1218,武汉将至酒店,江汉区
114.264082,30.627529,1219,尚雅酒店(武汉汉口火车站店),江汉区
114.261881,30.584856,1220,尚客优酒店(武汉航空路店),江汉区
114.266060,30.593763,1221,锋·态度酒店(武汉万松园王家墩东地铁站店),江汉区
114.249886,30.584186,1222,世纪花园大酒店,江汉区
114.252215,30.616990,1223,OYO武汉万特宾馆(武汉汉口火车站店),江汉区
114.251626,30.612117,1224,武汉馨美公寓,江汉区
114.244702,30.608722,1225,满月house民宿(汉口火车站店),江汉区
114.251743,30.612143,1226,武汉99时尚公寓,江汉区
114.289421,30.579572,1227,城市便捷酒店武汉江汉路佳丽广场店大堂,江汉区
114.240131,30.606968,1228,如家商旅酒店(武汉泛海CBD店),江汉区
114.251208,30.612369,1229,武汉寓见客栈,江汉区
114.273072,30.605104,1230,榛果酒店公寓,江汉区
114.258660,30.616929,1231,丽呈睿轩酒店(汉口火车站店),江汉区
114.282183,30.575181,1232,铂莱华大酒店,江汉区
114.283009,30.605658,1233,武汉和悦廷酒店公寓,江汉区
114.273114,30.605251,1234,北岛漫屿轻奢酒店(武汉菱角湖壹号店),江汉区
114.274176,30.581647,1235,雅斯特酒店(武汉解放大道中山公园地铁站店),江汉区
114.254904,30.613043,1236,武汉可乐优选公寓酒店,江汉区
114.251195,30.612416,1237,江城公寓(武汉汉口站店),江汉区
114.254651,30.614685,1238,柏曼酒店(武汉汉口火车站地铁站店),江汉区
114.273034,30.604757,1239,随居观影酒店公寓(武汉菱角湖地铁站江汉万达广场店),江汉区
114.254019,30.613073,1240,武汉福景宾馆,江汉区
114.264251,30.585354,1241,桃木林精品酒店公寓,江汉区
114.246722,30.613724,1242,万越公寓(武汉汉口火车站泛海CBD店),江汉区
114.275981,30.611430,1243,武汉丽都住宿,江汉区
114.260623,30.63722,1244,柏曼酒店(武汉汉口火车站杨汊湖地铁口店),江汉区
114.277235,30.612659,1245,青年住宿(武汉三眼桥地铁站店),江汉区
114.261834,30.606245,1246,璞悦设计酒店,江汉区
114.249087,30.613456,1247,武汉思联公寓,江汉区
114.285009,30.575475,1248,柏曼酒店(武汉六渡桥地铁站店),江汉区
114.257168,30.627848,1249,武汉荣发宾馆,江汉区
114.250103,30.619789,1250,武汉鑫濠格雷斯大酒店,江汉区
114.282226,30.573508,1251,骏怡连锁酒店(武汉六渡桥地铁站店),江汉区
114.254836,30.613025,1252,简爱公寓(武汉汉口火车站店),江汉区
114.251267,30.612369,1253,时尚公寓(武汉汉口火车站店),江汉区
114.260188,30.627981,1254,精途酒店(武汉汉口火车站常青三路店),江汉区
114.251183,30.612204,1255,武汉汉口城市驿站酒店公寓,江汉区
114.292265,30.576270,1256,Flora子衿美宿影院酒店公寓(江汉路店),江汉区
114.290265,30.567651,1257,AK电竞概念酒店,江汉区
114.253870,30.613308,1258,怡景时尚宾馆,江汉区
114.254031,30.613115,1259,武汉诚信短租屋公寓,江汉区
114.254416,30.599972,1260,DATE19潮宿酒店(泛海CBD店),江汉区
114.261131,30.591138,1261,武汉浩东旅馆,江汉区
114.268322,30.592967,1262,武汉锦兴宾馆,江汉区
114.292100,30.576261,1263,武汉鑫鑫青旅,江汉区
114.262511,30.584268,1264,尚都酒店(同济医学院店),江汉区
114.255891,30.623046,1265,武汉龙鑫旅馆,江汉区
114.254217,30.599959,1266,徽茵湖畔酒店(武汉泛海CBD店),江汉区
114.247503,30.613622,1267,武汉YES花园酒店,江汉区
114.252537,30.623650,1268,武汉锦绣宾馆,江汉区
114.254973,30.612988,1269,鸿福客栈(武汉汉口火车站店),江汉区
114.287054,30.580160,1270,汉庭酒店(武汉江汉路步行街店),江汉区
114.261381,30.613179,1271,为民旅社,江汉区
114.243550,30.621554,1272,纽宾凯酒店(武汉汉口火车站店),江汉区
114.251068,30.612328,1273,武汉锦江快捷公寓,江汉区
114.293451,30.578253,1274,梦行者电竞酒店(武汉江汉路地铁站店),江汉区
114.267349,30.587082,1275,禾丽简爱精选酒店(武汉协和医院店),江汉区
114.284146,30.574673,1276,罗曼主题酒店(武汉六渡桥地铁站店),江汉区
114.254544,30.599846,1277,悦泉酒店,江汉区
114.275234,30.582097,1278,武汉模范住宿,江汉区
114.251696,30.612112,1279,武汉雅芳时尚酒店公寓,江汉区
114.268334,30.621976,1280,平底锅电竞酒店(武汉唐家墩店),江汉区
114.292082,30.576968,1281,武汉千遇千寻公寓(5号店),江汉区
114.288458,30.574328,1282,武汉泰华宾馆,江汉区
114.285134,30.572521,1283,武汉江华旅馆,江汉区
114.283314,30.573802,1284,浩霖电竞公寓(六渡桥地铁站店),江汉区
114.246701,30.613943,1285,汉口温德姆花园酒店,江汉区
114.275242,30.581827,1286,武汉康泰旅馆,江汉区
114.255974,30.622313,1287,武汉嘉丰宾馆,江汉区
114.269755,30.581593,1288,武汉万宸主题酒店,江汉区
114.292182,30.576327,1289,武汉别止美宿影院公寓(江汉路步行街店),江汉区
114.264022,30.615971,1290,辛巴电竞酒店公寓(武汉汉口火车站店),江汉区
114.274012,30.60463,1291,维也纳酒店(菱角湖万达地铁站店),江汉区
114.250102,30.613718,1292,何姐公寓式酒店(武汉汉口火车站店),江汉区
114.251674,30.612042,1293,真情时尚公寓,江汉区
114.254555,30.600543,1294,辛德拉公寓酒店(武汉泛海CBD店),江汉区
114.279745,30.580772,1295,天顺旅馆(武汉协和医院店),江汉区
114.251696,30.612112,1296,武汉七天假日酒店公寓,江汉区
114.263309,30.586113,1297,武汉时光青年公寓,江汉区
114.270486,30.592738,1298,武汉忆时光青年公寓,江汉区
114.260174,30.617507,1299,武汉时光纪青年旅舍,江汉区
114.251534,30.611514,1300,武汉浪漫满屋青年旅舍,江汉区
114.258754,30.616923,1301,丽呈睿轩武汉汉口火车站酒店,江汉区
114.254051,30.612991,1302,武汉欣雨公寓,江汉区
114.277897,30.582380,1303,武汉家佳住宿,江汉区
114.241843,30.625894,1304,7天优品武汉民航小区长港路地铁站店大堂,江汉区
114.283675,30.581868,1305,武汉亚鑫宾馆,江汉区
114.274968,30.611083,1306,鸿景酒店(武汉三眼桥地铁站店),江汉区
114.254115,30.614388,1307,如家精选酒店(武汉汉口火车站店),江汉区
114.292801,30.578167,1308,云汐酒店式公寓(武汉江汉路步行街店),江汉区
114.249854,30.613376,1309,武汉云霞公寓,江汉区
114.239441,30.627015,1310,武汉芳友招待所,江汉区
114.292363,30.577172,1311,武汉将至民宿(花楼街分店),江汉区
114.274806,30.581433,1312,武汉宜美公寓,江汉区
114.282983,30.577755,1313,怡园宾馆(武汉前进一路店),江汉区
114.285804,30.582426,1314,哈啰轻酒店（武汉江汉路步行街店）,江汉区
114.239928,30.625667,1315,丽枫酒店(武汉长港路店),江汉区
114.254622,30.614581,1316,武汉泛悦酒店,江汉区
114.282443,30.582083,1317,满月house民宿(万科金色家园店),江汉区
114.292527,30.576178,1318,武汉喵时光公寓,江汉区
114.262607,30.607297,1319,沐梵诗公寓(武汉江宸天街店),江汉区
114.282400,30.606030,1320,云上民宿,江汉区
114.254843,30.613010,1321,武汉客安居公寓,江汉区
114.292164,30.577095,1322,尚果创意公寓(武汉江汉路店),江汉区
114.273101,30.605106,1323,武汉CityNest X高空套房公寓,江汉区
114.262085,30.584919,1324,万越酒店公寓(武汉同济医科大学店),江汉区
114.254497,30.613336,1325,武汉星星公寓,江汉区
114.251190,30.612317,1326,武汉江锋恋家公寓,江汉区
114.283763,30.575217,1327,武汉银森精品酒店(江汉路六渡桥地铁站店),江汉区
114.260735,30.606875,1328,辛德拉公寓(青年路江宸天街店),江汉区
114.271897,30.599786,1329,武汉金隆旅馆,江汉区
114.254410,30.600004,1330,武汉雍澜酒店(泛海CBD店),江汉区
114.292104,30.576261,1331,武汉慢宿sleeper公寓,江汉区
114.254198,30.613126,1332,武汉火车站馨如家公寓,江汉区
114.248588,30.609546,1333,武汉缘缘旅馆,江汉区
114.250320,30.613138,1334,帝豪青年旅舍,江汉区
114.243954,30.626497,1335,城市精选酒店(武汉汉口火车站长港路地铁站店),江汉区
114.283902,30.585002,1336,77连锁酒店(武汉循礼门单洞街花市店),江汉区
114.254142,30.613012,1337,怡景商务酒店(B805店),江汉区
114.276528,30.579827,1338,武汉京展宾馆,江汉区
114.253632,30.614201,1339,全季酒店(汉口火车站广场店),江汉区
114.290293,30.581610,1340,武汉璇宫酒店,江汉区
114.267152,30.591865,1341,武汉金梦园旅馆,江汉区
114.271806,30.592816,1342,武汉8090青年旅舍,江汉区
114.250140,30.612726,1343,宏宇宾馆,江汉区
114.254853,30.613012,1344,武汉汉口快捷公寓(2号店),江汉区
114.273200,30.604714,1345,鹿鸣观影酒店(武汉菱角湖壹号店),江汉区
114.283314,30.573802,1346,FAN民宿(武汉六渡桥地铁站店),江汉区
114.289439,30.582372,1347,易捷连锁酒店(武汉江汉路时尚店),江汉区
114.274184,30.581625,1348,中尚酒店,江汉区
114.251875,30.612036,1349,武汉车站假日酒店公寓,江汉区
114.262504,30.600323,1350,哈啰轻酒店(武汉范湖地铁站店),江汉区
114.275879,30.600081,1351,久鑫旅馆,江汉区
114.251017,30.612326,1352,武汉美雅快捷酒店,江汉区
114.260735,30.606875,1353,金伯爵影院酒店(汉口站江宸天街店),江汉区
114.274809,30.581444,1354,武汉拾光悦慕酒店,江汉区
114.277379,30.578598,1355,壹加壹宾馆(自治街店),江汉区
114.294120,30.578409,1356,武汉如期将至公寓(江北快速路分店),江汉区
114.254755,30.600781,1357,武汉泛海CBD·花园式3D影院套房公寓,江汉区
114.251038,30.612445,1358,武汉7天网络酒店,江汉区
114.267064,30.592338,1359,武汉国顺旅店,江汉区
114.251120,30.612429,1360,阳光便捷酒店式公寓(武汉汉口火车站店),江汉区
114.274727,30.581521,1361,武汉悦慕艺宿酒店公寓,江汉区
114.254910,30.613717,1362,武汉时尚公寓酒店,江汉区
114.269922,30.619491,1363,花语优品公寓酒店(武汉汉口火车站店),江汉区
114.258816,30.616633,1364,哈啰轻酒店(汉口火车站店),江汉区
114.273135,30.605314,1365,徐小姐不在家公寓(武汉菱角湖店),江汉区
114.297267,30.574361,1366,武汉东红旅馆,江汉区
114.249341,30.613137,1367,武汉祥瑞青年旅舍,江汉区
114.291980,30.576314,1368,星眠star美宿,江汉区
114.256013,30.622324,1369,武汉友发招待所,江汉区
114.275567,30.582034,1370,武汉海丽招待所,江汉区
114.292533,30.575880,1371,武汉汝家短租公寓,江汉区
114.288465,30.580376,1372,7天酒店(武汉江汉路地铁站步行街店),江汉区
114.277471,30.612137,1373,海红宾馆,江汉区
114.260755,30.622464,1374,万珈宾馆(武汉常青店),江汉区
114.282290,30.606071,1375,武汉H&M禾木公寓,江汉区
114.268160,30.581094,1376,初见公寓(武汉创世纪广场店),江汉区
114.254481,30.599954,1377,威士鹿公寓酒店(武汉泛海CBD店),江汉区
114.276641,30.587450,1378,武汉宿逅suhome(汉口一店)公寓(55号店),江汉区
114.254160,30.613133,1379,武汉蓝航主题电竞酒店,江汉区
114.258456,30.591436,1380,武汉吉家旅馆,江汉区
114.272949,30.592257,1381,梦行者电竞酒店(新华路店),江汉区
114.266066,30.593681,1382,武汉她他主题酒店,江汉区
114.260735,30.606875,1383,武汉夕·寓民宿,江汉区
114.265675,30.589466,1384,熹合院影院公寓,江汉区
114.292680,30.578078,1385,麦芽精选酒店公寓,江汉区
114.251262,30.612364,1386,武汉依依公寓酒店,江汉区
114.280878,30.575902,1387,武汉民谊旅馆,江汉区
114.273298,30.618668,1388,豫商旅馆,江汉区
114.272594,30.605114,1389,随居观影酒店(武汉万达广场菱角湖地铁站),江汉区
114.292015,30.576279,1390,子兴民宿,江汉区
114.281558,30.572117,1391,鑫银海酒店,江汉区
114.243438,30.628390,1392,武汉海航快捷酒店,江汉区
114.292737,30.577574,1393,美好将至公寓(花楼街1号分店),江汉区
114.254216,30.613262,1394,武汉鑫美公寓,江汉区
114.273760,30.617903,1395,OYO可寓公寓(唐家墩地铁站唐蔡路店),江汉区
114.255111,30.613099,1396,武汉美家宾馆,江汉区
114.256696,30.622503,1397,武汉福星旅社,江汉区
114.283625,30.576657,1398,相约在此酒店(武汉江汉路步行街店),江汉区
114.248892,30.611274,1399,武汉118商务宾馆,江汉区
114.290759,30.581305,1400,荟悦酒店(武汉江汉路店),江汉区
114.274559,30.581646,1401,天瑞国际酒店公寓(协和医院武展店),江汉区
114.251190,30.612317,1402,武汉七天酒店公寓,江汉区
114.292322,30.576305,1403,武汉恋影公寓,江汉区
114.288514,30.580577,1404,武汉梦圆旅馆,江汉区
114.256216,30.629496,1405,武汉鸿飞旅馆,江汉区
114.26697,30.588054,1406,宜尚酒店(武汉广场万松园店),江汉区
114.248831,30.611249,1407,武汉吉利精选酒店,江汉区
114.293670,30.577713,1408,武汉可遇公寓,江汉区
114.290695,30.579778,1409,武汉将至民宿(交通路分店),江汉区
114.276911,30.600981,1410,武汉华峰旅馆,江汉区
114.255114,30.613158,1411,武汉幸福5加2公寓,江汉区
114.282313,30.606054,1412,武汉中华城影院公寓,江汉区
114.251286,30.611890,1413,如意家酒店公寓(武汉汉口店),江汉区
114.260371,30.586692,1414,武汉阳阳招待所,江汉区
114.265011,30.588866,1415,武汉静宁招待所,江汉区
114.280860,30.580729,1416,武汉雅林精选酒店,江汉区
114.251671,30.611520,1417,武汉军港宾馆,江汉区
114.292802,30.578108,1418,唐果尚品酒店(武汉江汉路步行街店),江汉区
114.265884,30.588818,1419,怡莱精品酒店(武汉广场万松园店),江汉区
114.282167,30.569087,1420,武汉鑫汇商务宾馆,江汉区
114.284548,30.57576,1421,宜尚酒店(武汉江汉路步行街店),江汉区
114.264631,30.616372,1422,丽枫酒店(汉口火车站大武汉1911店),江汉区
114.282990,30.605675,1423,宝拉精选公寓(武汉香港路店),江汉区
114.260388,30.617254,1424,武汉朋来聚青年旅舍,江汉区
114.270147,30.612048,1425,武汉鑫园旅馆,江汉区
114.290116,30.581410,1426,ZMAX HOTELS(武汉江汉路步行街璇宫店),江汉区
114.253490,30.617478,1427,武汉永鑫宾馆,江汉区
114.262396,30.603623,1428,武汉V7酒店,江汉区
114.277778,30.588754,1429,周和宾馆,江汉区
114.263663,30.60026,1430,金盾舒悦酒店,江汉区
114.258459,30.616003,1431,武汉东方建国大酒店,江汉区
114.254150,30.613204,1432,武汉汉口之家酒店公寓,江汉区
114.268640,30.590515,1433,武汉圆梦宾馆,江汉区
114.258859,30.613057,1434,武汉新速7酒店,江汉区
114.271861,30.602680,1435,唯度青年酒店(武汉菱角湖店),江汉区
114.292792,30.578163,1436,江城美寓影院酒店(武汉江汉路步行街店),江汉区
114.251432,30.612565,1437,武汉江锋1+1公寓,江汉区
114.254472,30.599964,1438,武汉卡洛斯服务公寓,江汉区
114.267050,30.606728,1439,武汉Younger青年旅社,江汉区
114.262693,30.590528,1440,武汉辛德拉公寓(ICC环贸中心店)(8号店),江汉区
114.271659,30.615562,1441,后璞电竞公寓(武汉唐家墩店),江汉区
114.284506,30.574609,1442,熙怡酒店(武汉六渡桥地铁站店),江汉区
114.263088,30.629745,1443,雅曼公寓,江汉区
114.292458,30.57723,1444,丽枫酒店(武汉江汉路地铁站店),江汉区
114.251226,30.612419,1445,武汉江锋公寓,江汉区
114.273390,30.604784,1446,武汉途家斯维登美式公寓(菱角湖万达地铁站店),江汉区
114.239036,30.623182,1447,美居酒店(武汉恒信店),江汉区
114.253953,30.614867,1448,雅斯特国际酒店(武汉汉口火车站店),江汉区
114.248984,30.613371,1449,武汉信望爱轻奢酒店,江汉区
114.273035,30.605094,1450,花花里艺术影院公寓(武汉菱角湖万达店),江汉区
114.282346,30.569730,1451,武汉奈尚精品酒店,江汉区
114.274196,30.611640,1452,木石电竞酒店(武汉香港路店),江汉区
114.271945,30.597893,1453,全季酒店(武汉汉口新华路店),江汉区
114.277298,30.600270,1454,汉庭酒店(武汉取水楼地铁站),江汉区
114.265800,30.589080,1455,武汉美嘉城市民宿(45号店),江汉区
114.271470,30.593022,1456,武汉金福旅馆,江汉区
114.292620,30.575937,1457,武汉好美家酒店式公寓,江汉区
114.236107,30.626821,1458,武汉万科君澜酒店,江汉区
114.286062,30.568500,1459,武汉鑫豪宾馆,江汉区
114.246940,30.612972,1460,武汉顺安招待所,江汉区
114.270448,30.611843,1461,洪源宾馆(武汉万达广场店),江汉区
114.284834,30.573974,1462,武汉壹加壹宾馆,江汉区
114.248583,30.622563,1463,宜尚酒店(武汉汉口站长港路地铁口店),江汉区
114.274618,30.581662,1464,天瑞酒店公寓(武汉协和医院店),江汉区
114.277953,30.610705,1465,武汉鑫园住宿,江汉区
114.254275,30.612962,1466,武汉怡景鑫缘公寓,江汉区
114.254174,30.613153,1467,武汉怡景百合花主题公寓(9号店),江汉区
114.274778,30.581376,1468,悦尔城市酒店(武汉武广店),江汉区
114.255244,30.602175,1469,武汉汉口泛海喜来登大酒店,江汉区
114.265779,30.589094,1470,武汉臻真爱情侣主题酒店(万松园美食街店),江汉区
114.289004,30.575598,1471,银华商务宾馆(武汉统一街店),江汉区
114.261846,30.604712,1472,万景商务酒店(武汉江宸天街店),江汉区
114.280714,30.608039,1473,武汉高峰旅馆,江汉区
114.271830,30.593079,1474,美嘉莱酒店(武汉万松园取水楼地铁站店),江汉区
114.270489,30.596562,1475,武汉锦江国际大酒店,江汉区
114.263238,30.589288,1476,桔子酒店(武汉青年路店),江汉区
114.282418,30.606018,1477,武汉梵沐霖城市公寓香港路店(2号店),江汉区
114.244136,30.623738,1478,武汉汉口火车站常青路亚朵酒店,江汉区
114.238218,30.585027,1479,武汉CBD楚世家丽呈华廷酒店,江汉区
114.292124,30.577504,1480,武汉如期将至公寓(6号店),江汉区
114.261378,30.588917,1481,武汉华玻旅馆,江汉区
114.252436,30.611378,1482,城市钻石酒店(汉口火车站店),江汉区
114.271809,30.611579,1483,武汉源盛旅馆,江汉区
114.288662,30.581403,1484,武汉新盛家精品酒店,江汉区
114.262275,30.590219,1485,武汉ICC橙子公寓,江汉区
114.254280,30.612964,1486,武汉怡景之星公寓,江汉区
114.254226,30.612827,1487,武汉新时代公寓,江汉区
114.239243,30.624087,1488,武汉阳光酒店,江汉区
114.251554,30.612011,1489,武汉汉口便捷酒店,江汉区
114.239402,30.627008,1490,常青快捷酒店,江汉区
114.254608,30.613232,1491,武汉汉口站五月花公寓(2号店),江汉区
114.273143,30.605008,1492,武汉沐梵诗酒店公寓,江汉区
114.264232,30.585343,1493,武汉一家人酒店公寓,江汉区
114.274866,30.581438,1494,武汉拾光美客公寓(协和医院店),江汉区
114.265498,30.624676,1495,武汉天成宾馆,江汉区
114.282397,30.606055,1496,武汉思情梦幻公寓,江汉区
114.273296,30.604742,1497,TOP PLAY电竞酒店(菱角湖壹号店),江汉区
114.288565,30.576071,1498,武汉丽都时尚旅馆,江汉区
114.260385,30.618620,1499,楼兰公寓酒店,江汉区
114.277713,30.603358,1500,MONSTER电竞酒店(菱角湖地铁站店),江汉区
114.254280,30.612964,1501,武汉于家公寓,江汉区
114.289177,30.576146,1502,幸福宾馆(武汉统一街店),江汉区
114.236431,30.613725,1503,欢乐住宿,江汉区
114.284085,30.575597,1504,武汉荔东宾馆,江汉区
114.250435,30.598714,1505,武汉泛海费尔蒙酒店,江汉区
114.290838,30.581275,1506,喵趣酒店,江汉区
114.282381,30.575395,1507,武汉洪鑫商务宾馆,江汉区
114.269307,30.581834,1508,武汉027电竞公寓,江汉区
114.292021,30.576322,1509,武汉梦栖lee公寓,江汉区
114.288677,30.582579,1510,扬子江天美乐饭店(江汉路店),江汉区
114.250087,30.613348,1511,温馨公寓(武汉武汉汉口火车站店),江汉区
114.285815,30.575818,1512,锐丰酒店(武汉江汉路步行街店),江汉区
114.283506,30.576044,1513,明星时尚旅馆(武汉六渡桥店),江汉区
114.266218,30.617898,1514,雅馨宾馆(武汉汉口火车站店),江汉区
114.251367,30.613389,1515,武汉白金时尚公寓,江汉区
114.293717,30.572931,1516,武汉六9精品旅馆,江汉区
114.285310,30.571223,1517,789旅馆,江汉区
114.275706,30.582095,1518,武汉兴泰招待所,江汉区
114.281319,30.583921,1519,如家睿柏·云酒店(武汉解放大道循礼门地铁站店),江汉区
114.268611,30.59412,1520,武汉新华voco酒店,江汉区
114.266443,30.589039,1521,武汉运生旅馆,江汉区
114.268158,30.581128,1522,武汉kamo酒店,江汉区
114.261487,30.613405,1523,77连锁酒店(武汉马场路店),江汉区
114.255136,30.613096,1524,金涛鸿帅帅公馆,江汉区
114.254211,30.613096,1525,武汉如家国银酒店式公寓,江汉区
114.283178,30.605603,1526,水平线酒店公寓(武汉香港路地铁站店),江汉区
114.266840,30.592678,1527,武汉万松园国顺旅馆(二号线地铁王家墩店),江汉区
114.257781,30.587199,1528,武汉鸿泰宾馆,江汉区
114.292174,30.576179,1529,武汉入梦之梦公寓(民生路分店),江汉区
114.263579,30.619780,1530,武汉宿逅suhome公寓(新华路分店),江汉区
114.251533,30.611871,1531,7天公寓(武汉汉口火车站发展公寓店),江汉区
114.262276,30.590222,1532,武汉ICC橙子民宿,江汉区
114.239428,30.626055,1533,胜家玫瑰酒店(武汉常青路店),江汉区
114.292769,30.578200,1534,武汉一棵树公寓(江汉路店),江汉区
114.262385,30.592495,1535,冠辰公寓,江汉区
114.269364,30.594314,1536,武汉梧桐云朵影院公寓,江汉区
114.254280,30.612964,1537,武汉天梨豪园公寓(6号店),江汉区
114.255009,30.613042,1538,汉口青年之家酒店公寓,江汉区
114.265809,30.611692,1539,武汉伊间民宿HBWH1905299354,江汉区
114.275186,30.608893,1540,武汉天空之蓝公寓(3号店),江汉区
114.264229,30.616871,1541,非繁·轻简臻品酒店(武汉汉口火车站店),江汉区
114.251875,30.612036,1542,武汉如家车站宾馆,江汉区
114.272104,30.605461,1543,武汉宿逅suhome公寓(长江日报路店),江汉区
114.283197,30.582043,1544,武汉Seki亞敏公寓(前进四路分店),江汉区
114.292014,30.576208,1545,武汉水晶雨线公寓(5号店),江汉区
114.294170,30.577079,1546,武汉宿影公寓(2号店),江汉区
114.264152,30.589014,1547,武汉遇见·拾光公寓(2号店),江汉区
114.273132,30.604992,1548,思缇奈尔Loft全景公寓(菱角湖店),江汉区
114.276980,30.589712,1549,龙池酒店,江汉区
114.285748,30.568703,1550,东汉宾馆,江汉区
114.273632,30.579740,1551,武汉国际会展中心商务酒店,江汉区
114.286272,30.580088,1552,东篱青年旅社,江汉区
114.264178,30.589070,1553,武汉观湖铂金公寓(青年路分店),江汉区
114.282671,30.586468,1554,武汉iamkayla公寓(江汉北路分店),江汉区
114.292178,30.576364,1555,武汉轻语美宿公寓,江汉区
114.246126,30.611889,1556,武汉路客在家公寓,江汉区
114.289089,30.580889,1557,武汉路客精品民宿BJ0850,江汉区
114.254739,30.612462,1558,武汉悠家民宿(江汉店)802,江汉区
114.261107,30.619674,1559,武汉萍妹公寓,江汉区
114.289029,30.580853,1560,武汉会飞的猪公寓(11号店),江汉区
114.289079,30.580936,1561,武汉Niki晓晓公寓(3号店),江汉区
114.250031,30.609056,1562,武汉路客民宿BD9030,江汉区
114.273129,30.604866,1563,武汉托吉酒店公寓,江汉区
114.255117,30.587928,1564,宜必思酒店(武汉同济医学院店),江汉区
114.281738,30.581255,1565,爱华旅社,江汉区
114.258153,30.616297,1566,汉庭酒店,江汉区
114.290631,30.579676,1567,武汉后苑公寓(2号店),江汉区
114.292254,30.576176,1568,武汉路客精品民宿BJ0580,江汉区
114.251189,30.612417,1569,欣欣公寓(武汉汉口站店),江汉区
114.254204,30.612869,1570,百合花简爱公寓式酒店,江汉区
114.254869,30.613033,1571,世家酒店公寓(汉口火车站店),江汉区
114.292530,30.576151,1572,宜家酒店公寓,江汉区
114.274045,30.605689,1573,武汉温鑫公寓旅馆,江汉区
114.254221,30.612850,1574,武汉汉口火车站钱多多民宿,江汉区
114.293341,30.577560,1575,武汉宝丽金回家公寓(花楼街分店),江汉区
114.271782,30.598990,1576,星添元商务宾馆,江汉区
114.263418,30.588530,1577,OYO天濠宾馆,江汉区
114.259198,30.618057,1578,武汉CC公寓,江汉区
114.291944,30.576366,1579,武汉美拉儿公寓(3号店),江汉区
114.256701,30.621672,1580,武汉Terrell公寓(金墩街分店),江汉区
114.262824,30.605126,1581,武汉路客精品民宿,江汉区
114.254823,30.600596,1582,袋鼠公寓(武汉CBD泛海国际店),江汉区
114.292613,30.576121,1583,武汉宿影房东公寓,江汉区
114.251243,30.613476,1584,武汉王了了大魔王公寓(3号店),江汉区
114.289029,30.580855,1585,武汉蚀光公寓,江汉区
114.274803,30.581439,1586,武汉Mobius公寓,江汉区
114.268236,30.612230,1587,武汉小瑶本瑶公寓,江汉区
114.259249,30.618282,1588,武汉微寓,江汉区
114.283605,30.581758,1589,武汉牧羊撒旦公寓,江汉区
114.252235,30.613573,1590,武汉王了了大魔王公寓(5号店),江汉区
114.264697,30.597471,1591,武汉PaPa星苑公寓(黄孝西路分店),江汉区
114.251632,30.613568,1592,武汉九九民宿,江汉区
114.263322,30.588141,1593,武汉梦遇公寓,江汉区
114.292613,30.576121,1594,武汉西霓久公寓(民生路分店),江汉区
114.273020,30.605338,1595,武汉远和公寓(菱角湖路分店),江汉区
114.253999,30.613003,1596,武汉汉口百合花之星公寓,江汉区
114.264863,30.619193,1597,武汉iamkayla公寓,江汉区
114.287625,30.574968,1598,武汉小庆公寓(文书巷分店),江汉区
114.273847,30.603923,1599,武汉無关风月公寓(3号店),江汉区
114.246126,30.611889,1600,武汉無关风月公寓(12号店),江汉区
114.251852,30.613581,1601,武汉Terrell公寓(发展大道分店),江汉区
114.282173,30.606038,1602,武汉易云游公寓,江汉区
114.282646,30.577338,1603,武汉汉堡包的仙女屋公寓(前进一路分店),江汉区
114.273020,30.605339,1604,武汉September公寓(菱角湖路分店),江汉区
114.289099,30.580839,1605,武汉玩儿民宿,江汉区
114.254195,30.613128,1606,武汉汉口站如意快捷公寓(5号店),江汉区
114.270566,30.611145,1607,武汉住呗公寓(9号店),江汉区
114.254843,30.613011,1608,武汉苗条猪公寓(发展大道分店),江汉区
114.244831,30.608481,1609,武汉星空有家公寓(二环线分店),江汉区
114.292104,30.576261,1610,武汉Olay公寓(民生路分店),江汉区
114.291944,30.576366,1611,武汉寿司.公寓(6号店),江汉区
114.252235,30.613573,1612,武汉王了了大魔王公寓(3号店),江汉区
114.275748,30.589174,1613,武汉路客民宿BF7640,江汉区
114.266892,30.606882,1614,武汉路客民宿BH9680,江汉区
114.260833,30.608653,1615,武汉客居民宿129540,江汉区
114.265973,30.596128,1616,武汉客居民宿129840,江汉区
114.292503,30.577717,1617,金国际舒适公寓,江汉区
114.270867,30.611653,1618,武汉星空有家公寓(北湖小路分店),江汉区
114.252290,30.613680,1619,武汉王了了大魔王公寓(10号店),江汉区
114.252235,30.613573,1620,武汉王了了大魔王公寓(6号店),江汉区
114.264178,30.589070,1621,武汉柒宿柒月姐姐公寓,江汉区
114.292254,30.576180,1622,武汉水晶雨线公寓(4号店),江汉区
114.289861,30.579599,1623,武汉会飞的猪公寓(6号店),江汉区
114.292254,30.576180,1624,武汉会飞的猪公寓(8号店),江汉区
114.247226,30.633664,1625,武汉七分夫妇公寓(3号店),江汉区
114.265611,30.627226,1626,武汉许主任公寓,江汉区
114.285047,30.576890,1627,武汉DJJ02071111H公寓,江汉区
114.292643,30.577990,1628,荣御民宿(江汉路步行街店),江汉区
114.280139,30.587971,1629,武汉localbao武汉店公寓(4号店),江汉区
114.269622,30.619000,1630,武汉紫玲珑公寓,江汉区
114.288264,30.573163,1631,武汉享家·品牌民宿(10号店),江汉区
114.292178,30.576327,1632,武汉沐溪民宿(4号店),江汉区
114.247399,30.618431,1633,武汉Claire.公寓(3号店),江汉区
114.270820,30.611716,1634,武汉左姐民宿放心住(3号店),江汉区
114.268005,30.611658,1635,武汉外滩比家美民宿(马场一路分店),江汉区
114.270013,30.619636,1636,武汉九亿公寓(12号店),江汉区
114.292383,30.577186,1637,武汉Seven玖柒公寓,江汉区
114.292104,30.576261,1638,武汉徐高兴公寓(4号店),江汉区
114.261767,30.585905,1639,武汉城宿武汉六店公寓(航空路分店),江汉区
114.289228,30.581040,1640,武汉会飞的猪公寓(13号店),江汉区
114.283278,30.577734,1641,武汉城宿武汉二店公寓,江汉区
114.261108,30.619610,1642,武汉月光的恩赐公寓,江汉区
114.292094,30.576261,1643,武汉大武汉黑姑娘公寓,江汉区
114.290649,30.580038,1644,武汉李梦莉公寓(2号店),江汉区
114.293807,30.572097,1645,武汉施璧玉公寓,江汉区
114.269496,30.619696,1646,武汉Benjaminn公寓,江汉区
114.274624,30.581474,1647,武汉2097年公寓,江汉区
114.251263,30.613277,1648,武汉辞职去旅行的小诗子公寓(2号店),江汉区
114.292246,30.576176,1649,武汉YangBo公寓,江汉区
114.267134,30.609701,1650,武汉沐木的鱼公寓(新华路分店),江汉区
114.281252,30.575826,1651,武汉Yang Bo公寓(3号店),江汉区
114.265179,30.625922,1652,武汉安安居公寓(2号店),江汉区
114.292900,30.578115,1653,武汉jojo貓公寓(3号店),江汉区
114.281235,30.585027,1654,武汉漫居悦活公寓(2号店),江汉区
114.269460,30.619400,1655,武汉王梦公寓,江汉区
114.292094,30.576282,1656,武汉柏桦林公寓,江汉区
114.250101,30.608835,1657,武汉罗老师公寓,江汉区
114.264088,30.588770,1658,武汉樱花地铁线-公交枢纽-高端公寓(2号店),江汉区
114.282469,30.582044,1659,武汉無关风月公寓(6号店),江汉区
114.289029,30.580853,1660,武汉可爱徐美丽公寓,江汉区
114.282170,30.586071,1661,武汉路客民宿BI8980,江汉区
114.292254,30.576176,1662,武汉水晶雨线公寓(6号店),江汉区
114.292732,30.578159,1663,武汉Moo Mood公寓(6号店),江汉区
114.282588,30.581472,1664,武汉闹市闲民公寓,江汉区
114.233575,30.620654,1665,武汉柚米公寓,江汉区
114.267525,30.614484,1666,武汉老胡同民宿(武汉总店)(35号店),江汉区
114.265541,30.589133,1667,武汉张潇洒公寓,江汉区
114.267204,30.609763,1668,武汉慧·生活艺术空间公寓,江汉区
114.292104,30.576261,1669,武汉广寒居公寓,江汉区
114.292014,30.576208,1670,武汉清原舍公寓(5号店),江汉区
114.266875,30.609694,1671,武汉观湖铂金公寓(新华路分店),江汉区
114.254195,30.613128,1672,武汉怡景福星公寓,江汉区
114.269446,30.619446,1673,武汉九亿公寓(8号店),江汉区
114.292104,30.576261,1674,武汉遇见·阳光屋公寓,江汉区
114.283077,30.582251,1675,武汉超哥精品民宿(前进四路分店),江汉区
114.270013,30.619636,1676,武汉九亿公寓(11号店),江汉区
114.266708,30.593240,1677,武汉栖民宿,江汉区
114.282986,30.605676,1678,武汉爱旅游的小胡公寓,江汉区
114.267108,30.610211,1679,武汉映子公寓,江汉区
114.279450,30.573824,1680,武汉印象公寓,江汉区
114.269727,30.594714,1681,武汉臆公寓(建设大道分店),江汉区
114.274614,30.604021,1682,武汉乐舍公寓(7号店),江汉区
114.254240,30.612949,1683,怡景青春驿栈,江汉区
114.282355,30.582051,1684,武汉jojo貓公寓,江汉区
114.280828,30.579774,1685,白霜电竞酒店(武汉前进一路店),江汉区
114.251692,30.612071,1686,武汉发展公寓客栈,江汉区
114.243121,30.621132,1687,金谷园招待所,江汉区
114.251664,30.612147,1688,武汉假日连锁公寓,江汉区
114.263855,30.615377,1689,武汉伊间民宿武汉分店(11号店),江汉区
114.263855,30.615378,1690,武汉伊间民宿武汉分店(10号店),江汉区
114.249956,30.613918,1691,武汉怡景时尚公寓(常青路分店),江汉区
114.271998,30.586509,1692,武汉Uuuushy公寓(公园中路分店),江汉区
114.256121,30.621534,1693,武汉Nial公寓(常青一路分店),江汉区
114.292178,30.576327,1694,武汉小晨房东公寓,江汉区
114.280846,30.582322,1695,武汉伊间民宿HBWHSQ7M,江汉区
114.282893,30.604207,1696,高雄大酒店,江汉区
114.285117,30.569950,1697,武汉黄石汉办招待所,江汉区
114.251843,30.613512,1698,武汉白金领域平安宾馆,江汉区
114.292819,30.578146,1699,027酒店式公寓(武汉江汉路分店),江汉区
114.271087,30.590470,1700,锦松宾馆,江汉区
114.240620,30.602145,1701,武汉伊间民宿武汉分店(43号店),江汉区
114.292802,30.578167,1702,武汉象牙LUXE公寓(花楼街分店),江汉区
114.261202,30.623947,1703,武汉飞纱吊椅床公寓,江汉区
114.289125,30.580679,1704,武汉紫晶公寓,江汉区
114.283361,30.574010,1705,奢居鼎尚公寓酒店(江汉路步行街店),江汉区
114.251767,30.611571,1706,武汉美巢酒店公寓,江汉区
114.249957,30.613919,1707,武汉天梨豪园公寓(7号店),江汉区
114.251753,30.612107,1708,浩浩公寓酒店,江汉区
114.254195,30.613129,1709,武汉梨豪园公寓,江汉区
114.251623,30.613540,1710,武汉逸客民宿(2号店),江汉区
114.293138,30.577263,1711,路客轻奢精品民宿(江汉路地铁站店),江汉区
114.280139,30.587967,1712,武汉路客BF3320精品民宿,江汉区
114.251037,30.613186,1713,武汉宜宾公寓,江汉区
114.254268,30.612826,1714,武汉汉口站怡景公寓(2号店),江汉区
114.252101,30.622552,1715,武汉兔悠家公寓(4号店),江汉区
114.283139,30.577708,1716,武汉诚待天下客遇见好欣情公寓,江汉区
114.289079,30.580936,1717,武汉柒公子民宿(江汉一路分店),江汉区
114.281264,30.581521,1718,武汉梅小越民宿(京汉大道分店),江汉区
114.274803,30.581442,1719,武汉中山公园家庭公寓,江汉区
114.246455,30.617482,1720,武汉William公寓(常青路分店),江汉区
114.272232,30.619664,1721,武汉嗖嗖民宿(八古墩东一巷分店),江汉区
114.283519,30.574182,1722,武汉南屿之岛民宿(中山大道分店),江汉区
114.270024,30.619305,1723,武汉汉口站地铁口/菱角湖万达/地中海轻奢公寓,江汉区
114.251663,30.612146,1724,武汉车站路客公寓(3号店),江汉区
114.270566,30.611145,1725,武汉住呗公寓(13号店),江汉区
114.292603,30.578186,1726,武汉季遇teresa公寓(6号店),江汉区
114.292832,30.578076,1727,武汉清原舍公寓(2号店),江汉区
114.282287,30.582091,1728,路客精品民宿BG9910,江汉区
114.292254,30.576176,1729,武汉路客精品民宿BJ5380,江汉区
114.263855,30.615378,1730,武汉伊间民宿HBWH1907079592,江汉区
114.262719,30.605109,1731,武汉伊间民宿HBWHXZV3,江汉区
114.281105,30.581567,1732,武汉路客民宿BI6190,江汉区
114.292254,30.576176,1733,武汉路客精品民宿AB0970,江汉区
114.254226,30.612852,1734,好来屋安斓之家公寓,江汉区
114.250685,30.613329,1735,武汉期遇公寓,江汉区
114.274442,30.619083,1736,武汉此房已下架公寓,江汉区
114.251663,30.612146,1737,武汉车站路客公寓(11号店),江汉区
114.254853,30.613010,1738,武汉怡景商务公寓(6号店),江汉区
114.254195,30.613128,1739,武汉怡景福星公寓(2号店),江汉区
114.254195,30.613128,1740,武汉武汉怡景喜洋洋家庭旅店,江汉区
114.254853,30.613010,1741,武汉温庆芳公寓(4号店),江汉区
114.289458,30.580954,1742,武汉Niki晓晓公寓(5号店),江汉区
114.292004,30.576204,1743,武汉陈登公寓(2号店),江汉区
114.283197,30.582167,1744,武汉如新公寓,江汉区
114.273996,30.604675,1745,武汉Zee公寓,江汉区
114.292534,30.575876,1746,武汉热情的小闵公寓(5号店),江汉区
114.292361,30.576569,1747,武汉枫之谷公寓(6号店),江汉区
114.269446,30.619446,1748,武汉布拉公寓,江汉区
114.292658,30.576061,1749,武汉投影音乐工作室公寓,江汉区
114.286296,30.570900,1750,路客公寓(武汉8店),江汉区
114.261073,30.624047,1751,武汉欣宁公寓(5号店),江汉区
114.292255,30.576176,1752,玖公寓,江汉区
114.292209,30.576820,1753,武汉汐汐汐汐公寓(4号店),江汉区
114.289008,30.582051,1754,武汉张先生公寓,江汉区
114.291875,30.576474,1755,武汉AkiW公寓(5号店),江汉区
114.291824,30.576642,1756,武汉AkiW公寓(6号店),江汉区
114.291875,30.576474,1757,武汉AkiW公寓(7号店),江汉区
114.293072,30.576959,1758,武汉江汉路步行街精装民宿(9号店),江汉区
114.263804,30.626681,1759,武汉深秋无痕C公寓,江汉区
114.292209,30.576305,1760,武汉PaPa公寓4(花楼街分店),江汉区
114.279732,30.579787,1761,武汉斑个马民宿中南财经政法大学(4号店),江汉区
114.292663,30.576247,1762,武汉刘梦希公寓(2号店),江汉区
114.254853,30.613012,1763,武汉怡景商务公寓(5号店),江汉区
114.269316,30.578610,1764,武汉馨苑公寓(2号店),江汉区
114.252116,30.622689,1765,武汉兔悠家公寓(2号店),江汉区
114.292014,30.576208,1766,武汉悠度民宿(2号店),江汉区
114.292254,30.576176,1767,武汉水晶雨线公寓(7号店),江汉区
114.292586,30.576046,1768,武汉刘梦希公寓(4号店),江汉区
114.292516,30.576108,1769,武汉魔力鸟之家公寓,江汉区
114.266874,30.611231,1770,武汉伊间民宿武汉分店(47号店),江汉区
114.292104,30.576261,1771,武汉sakura公寓,江汉区
114.292353,30.577483,1772,武汉江汉路公寓,江汉区
114.263569,30.591593,1773,武汉Kenny..公寓(5号店),江汉区
114.277131,30.611632,1774,武汉熊茜公寓(2号店),江汉区
114.292104,30.576261,1775,武汉TinyWW公寓,江汉区
114.264158,30.589025,1776,武汉伊间民宿武汉分店(59号店),江汉区
114.275728,30.610759,1777,武汉方同学公寓,江汉区
114.289079,30.580936,1778,武汉武汉途掌柜119399精品民宿,江汉区
114.267393,30.609899,1779,武汉待宿兮公寓(2号店),江汉区
114.268560,30.620915,1780,武汉李成成公寓(八古墩西四巷分店),江汉区
114.292154,30.576137,1781,武汉路客精品民宿BD8540,江汉区
114.249119,30.613578,1782,武汉恩典365民宿公寓(11号店),江汉区
114.265731,30.589144,1783,武汉途掌柜117715精品民宿,江汉区
114.251264,30.613278,1784,武汉伊间民宿武汉分店(23号店),江汉区
114.292533,30.575876,1785,武汉幸福·小筑(2号店),江汉区
114.274803,30.581439,1786,武汉lyCe公寓,江汉区
114.262266,30.590173,1787,铂庭精选酒店公寓,江汉区
114.292104,30.576261,1788,武汉Suomi公寓,江汉区
114.270486,30.601408,1789,武汉速7速8公寓(北湖正街分店),江汉区
114.292380,30.577374,1790,武汉S-S-公寓,江汉区
114.292048,30.576368,1791,武汉田俊公寓,江汉区
114.267054,30.609566,1792,武汉噜噜-公寓,江汉区
114.292014,30.576208,1793,途掌柜111832精品民宿,江汉区
114.251488,30.613368,1794,武汉伊间民宿武汉分店(7号店),江汉区
114.270919,30.611561,1795,武汉叁月思雨公寓,江汉区
114.282987,30.605676,1796,武汉香港公寓,江汉区
114.289079,30.580936,1797,武汉鹿岛槑子公寓(2号店),江汉区
114.254853,30.613012,1798,武汉怡景商务公寓(3号店),江汉区
114.291890,30.582101,1799,武汉鸿缘精品酒店,江岸区
114.296974,30.579255,1800,易佰酒店(武汉汉口江汉路步行街店),江岸区
114.293747,30.582518,1801,武汉乐居精选酒店,江岸区
114.302877,30.5895,1802,7天连锁酒店(武汉汉口江滩市府店),江岸区
114.292381,30.587538,1803,7天连锁酒店(武汉江汉路吉庆街地铁站店),江岸区
114.299591,30.585445,1804,7天连锁酒店(武汉汉口江滩江汉路数码港店),江岸区
114.296267,30.577692,1805,锦江之星旅馆,江岸区
114.323433,30.632399,1806,如家快捷酒店(武汉二七路徐州新村轻轨站店),江岸区
114.298278,30.594050,1807,武汉天壹宾馆,江岸区
114.297303,30.586071,1808,艾美迪精品酒店(武汉汉口江滩店),江岸区
114.281583,30.614516,1809,77酒店(花桥店),江岸区
114.291905,30.59465,1810,速8酒店(解放大道香港路店),江岸区
114.296121,30.655706,1811,华驿酒店(武汉市民之家店),江岸区
114.288448,30.586477,1812,武汉玉锦林商务宾馆,江岸区
114.334031,30.655968,1813,城市便捷酒店(武汉解放大道新荣轻轨站店),江岸区
114.300827,30.590128,1814,城市便捷酒店(武汉汉口江滩店),江岸区
114.289209,30.596524,1815,速7酒店(武汉儿童医院店),江岸区
114.319690,30.626833,1816,馨梦精品酒店(武汉二七路轻轨站店),江岸区
114.306189,30.596371,1817,武汉三阳宾馆,江岸区
114.306920,30.652667,1818,温馨港湾酒店,江岸区
114.286717,30.633937,1819,空杯连锁酒店(武汉后湖店),江岸区
114.289243,30.582806,1820,武汉博爱精选酒店,江岸区
114.290963,30.58234,1821,轻住·君港商务酒店(武汉江汉路步行街店),江岸区
114.299569,30.621962,1822,翔瑞宾馆(二七侧路),江岸区
114.297779,30.580025,1823,More Night轻舍酒店(武汉汉口江滩店),江岸区
114.282325,30.587902,1824,武汉万家都市宾馆,江岸区
114.292276,30.587477,1825,轻住·悦享酒店(武汉江汉路店),江岸区
114.298594,30.582212,1826,金花之星酒店(江汉路步行街江滩店),江岸区
114.288379,30.659772,1827,精途酒店(武汉市民之家地铁站店),江岸区
114.293674,30.58256,1828,夕沐庄园酒店(江汉路步行街店),江岸区
114.303551,30.65068,1829,艳阳天时尚旅店(武汉后湖大道地铁站店),江岸区
114.287885,30.585444,1830,凯利酒店(武汉江汉路步行街店),江岸区
114.290916,30.583864,1831,武汉单身时尚公寓(江汉二路分店),江岸区
114.322645,30.631141,1832,武汉恒达快捷酒店,江岸区
114.300196,30.595822,1833,雅仕达酒店(武汉大智路地铁站店),江岸区
114.298996,30.580547,1834,如家酒店(武汉江汉路步行街江滩店),江岸区
114.319667,30.626783,1835,金鑫宾馆(二七路轻轨站店),江岸区
114.289215,30.588396,1836,佳时得·逸酒店(武汉江汉路步行街店),江岸区
114.287183,30.602292,1837,城市便捷酒店(武汉儿童医院香港路地铁站店),江岸区
114.302087,30.603731,1838,7天连锁酒店(武汉天地解放公园店),江岸区
114.305476,30.651855,1839,九方城市酒店,江岸区
114.289481,30.585430,1840,如家neo(武汉江汉路步行街店),江岸区
114.304978,30.617788,1841,伽禾旅馆(时尚店),江岸区
114.274453,30.635074,1842,城市便捷酒店(武汉后湖大道店),江岸区
114.294718,30.591259,1843,璞月精选酒店(武汉大智路地铁站店),江岸区
114.270498,30.639738,1844,武汉金海岸宾馆,江岸区
114.311773,30.614614,1845,77连锁酒店(武汉黄浦店),江岸区
114.273918,30.592472,1846,如家酒店(武汉新华路取水楼地铁站店),江岸区
114.302619,30.602657,1847,武汉派尚主题酒店,江岸区
114.292554,30.588253,1848,芭堤雅酒店(武汉吉庆街店),江岸区
114.301695,30.600013,1849,锦悦瑞丽酒店(武汉三阳路地铁站店),江岸区
114.289365,30.585093,1850,星空宾馆,江岸区
114.321922,30.643472,1851,城市便捷酒店(武汉百步亭店),江岸区
114.312441,30.649572,1852,OYO武汉天天家酒店,江岸区
114.298856,30.589224,1853,武汉鑫都旅馆,江岸区
114.293475,30.580461,1854,武汉锦泰宾馆,江岸区
114.321606,30.655968,1855,武汉摩尔假日酒店(后湖大道摩尔城店),江岸区
114.290208,30.583110,1856,洪鑫旅馆(武汉保成路店),江岸区
114.291201,30.597007,1857,龙发酒店(武汉香港路儿童医院店),江岸区
114.292215,30.600475,1858,武汉捷峰旅馆,江岸区
114.283748,30.657969,1859,洪源宾馆(武汉余华岭佳园店),江岸区
114.282489,30.589446,1860,如家酒店(武汉循礼门地铁站江汉北路店),江岸区
114.299281,30.588197,1861,慕云酒店(武汉江汉路步行街店),江岸区
114.287224,30.584725,1862,世兴出租屋(武汉循礼门轻轨店),江岸区
114.293171,30.591090,1863,城市便捷酒店(武汉吉庆街大智路地铁站店),江岸区
114.345987,30.664336,1864,甜蜜主题宾馆(武汉堤角店),江岸区
114.309810,30.603844,1865,金锐宾馆(武汉天地汉口江滩店),江岸区
114.289012,30.607487,1866,武汉鑫鹏宾馆,江岸区
114.308231,30.652691,1867,武汉觅你主题酒店(后湖汉口城市广场店),江岸区
114.300543,30.640415,1868,东方广场酒店式公寓(武汉机场店),江岸区
114.311790,30.614557,1869,武汉富美公寓,江岸区
114.295438,30.579000,1870,武汉巧和青年旅舍,江岸区
114.310722,30.653345,1871,武汉自由领寓酒店,江岸区
114.291239,30.582567,1872,武汉华锦宾馆,江岸区
114.288883,30.600325,1873,香缘酒店(武汉儿童医院店),江岸区
114.291982,30.583256,1874,武汉鑫77宾馆,江岸区
114.288845,30.607474,1875,尚捷宾馆(惠济路),江岸区
114.289347,30.605862,1876,唯度国际青年酒店(武汉儿童医院店),江岸区
114.28541,30.611821,1877,城市便捷酒店(武汉黄孝河路花桥店),江岸区
114.300729,30.640373,1878,武汉沃斯华公寓,江岸区
114.286036,30.633496,1879,维特尔精品酒店,江岸区
114.293808,30.580704,1880,武汉爱恋主题酒店,江岸区
114.287635,30.584940,1881,戴丁连锁影院酒店(江汉路循礼门店),江岸区
114.291778,30.583333,1882,武汉金路宾馆,江岸区
114.290839,30.620794,1883,武汉天乐招待所,江岸区
114.302309,30.589247,1884,77连锁宾馆(武汉江滩洞庭街店),江岸区
114.297457,30.587436,1885,漫云精选酒店(武汉江汉路步行街店),江岸区
114.300372,30.582823,1886,武汉海龙协力酒店,江岸区
114.299342,30.593989,1887,武汉华安旅馆,江岸区
114.292142,30.584444,1888,如家睿柏·云酒店(武汉江汉路步行街店),江岸区
114.290591,30.597673,1889,汉庭酒店(武汉香港路儿童医院店),江岸区
114.297195,30.578771,1890,懒猫客栈(武汉江汉路店),江岸区
114.290108,30.585003,1891,吴家花园民宿,江岸区
114.298342,30.586586,1892,77连锁酒店(兰陵路店),江岸区
114.314262,30.638579,1893,震姐宾馆,江岸区
114.301178,30.640637,1894,希呈电竞影院民宿,江岸区
114.294074,30.587763,1895,空杯连锁酒店(吉庆街店),江岸区
114.308144,30.652578,1896,武汉汉广公寓(3号店),江岸区
114.293899,30.655089,1897,如轩精品酒店(武汉市民之家店),江岸区
114.295646,30.579794,1898,武汉优客精品酒店,江岸区
114.300054,30.592827,1899,武汉佳来宾馆,江岸区
114.290890,30.583840,1900,CoCo青年公寓(武汉江汉路步行街店),江岸区
114.297498,30.582200,1901,格林豪泰酒店(武汉汉口江滩店),江岸区
114.299765,30.581821,1902,梵筑酒店(武汉江汉路步行街店),江岸区
114.300279,30.603963,1903,6+1旅馆,江岸区
114.327711,30.639263,1904,雅斯特酒店(武汉百步亭店),江岸区
114.291408,30.656977,1905,希维尔影院公寓(绿地汉口中心店),江岸区
114.296431,30.655072,1906,橙谊连锁酒店(武汉市民之家地铁站店),江岸区
114.290175,30.582455,1907,武汉帝盛酒店,江岸区
114.285471,30.623904,1908,武汉艺珑快捷酒店,江岸区
114.286560,30.633876,1909,武汉恒兴宾馆,江岸区
114.300558,30.640444,1910,武汉颜舍采梦艺术影院公寓,江岸区
114.293542,30.587378,1911,武汉瑞祥精致旅馆,江岸区
114.282593,30.6302,1912,武汉海航商务宾馆,江岸区
114.287888,30.585050,1913,武汉盛泰酒店(循礼门地铁站江汉路步行街店),江岸区
114.286817,30.584978,1914,锦程太空舱青年公寓(江汉路地铁站店),江岸区
114.293678,30.645078,1915,豪绅酒店(武汉汉口城市广场店),江岸区
114.301178,30.640770,1916,武汉西柚影院公寓,江岸区
114.317048,30.640438,1917,武汉悦和公寓,江岸区
114.292402,30.588640,1918,武汉银翔旅馆,江岸区
114.286353,30.585929,1919,橙心悦色青年旅舍,江岸区
114.299389,30.601100,1920,武汉福顺宾馆,江岸区
114.321169,30.642809,1921,武汉百花商务宾馆,江岸区
114.293834,30.587429,1922,武汉军港主题宾馆,江岸区
114.300266,30.604071,1923,武汉解放6十1旅馆,江岸区
114.306700,30.614925,1924,派柏·云酒店(武汉黄浦大街店),江岸区
114.295598,30.577713,1925,喆啡酒店(武汉江汉路地铁站步行街店),江岸区
114.298174,30.579662,1926,锦江之星酒店(武汉江滩南京路店),江岸区
114.304866,30.618304,1927,军供宾馆(赵家条地铁站店),江岸区
114.287786,30.622309,1928,铂金影院酒店(华中国际广场店),江岸区
114.284424,30.657685,1929,湖北多米亚朵酒店,江岸区
114.292979,30.585254,1930,卡缪海姆酒店(武汉江汉路吉庆街店),江岸区
114.293894,30.654979,1931,汉庭酒店(武汉市民之家店),江岸区
114.294206,30.593054,1932,骏怡连锁酒店(武汉江岸区大智路地铁站店),江岸区
114.291383,30.657016,1933,武汉星伦酒店,江岸区
114.295021,30.626820,1934,武汉一宝华美达酒店,江岸区
114.294358,30.589797,1935,柏漫酒店,江岸区
114.290313,30.605319,1936,来旺达轻居酒店(武汉儿童医院香港路地铁站店),江岸区
114.300365,30.627624,1937,武汉易居精品酒店,江岸区
114.287799,30.622236,1938,卡尔斯影院公寓(华中国际店),江岸区
114.290922,30.583871,1939,武汉美客精品主题酒店,江岸区
114.291826,30.656333,1940,Mysterious秘境设计影院酒店(绿地汉口中心市民之家店),江岸区
114.329653,30.664794,1941,新荣宾馆,江岸区
114.287191,30.652675,1942,武汉泽宇国际酒店,江岸区
114.306118,30.607989,1943,武汉天地Loft影视公寓,江岸区
114.280028,30.596924,1944,青禾精品酒店,江岸区
114.290202,30.595531,1945,怡莱酒店(武汉苗栗路儿童医院店),江岸区
114.306548,30.602210,1946,武汉江豪宾馆,江岸区
114.303187,30.638588,1947,武汉九思堂宾馆,江岸区
114.301780,30.586590,1948,你好酒店(武汉汉口江滩店),江岸区
114.297984,30.619809,1949,城市便捷酒店(武汉黄浦店),江岸区
114.297416,30.587465,1950,格林豪泰(武汉兰陵路店),江岸区
114.298212,30.579661,1951,白玉兰酒店(武汉江滩南京路科技馆店),江岸区
114.274355,30.593440,1952,希岸酒店(武汉金融中心喷泉公园店),江岸区
114.277302,30.620657,1953,武汉洪晋酒店,江岸区
114.273517,30.594336,1954,武汉广场汉口金融中心亚朵酒店,江岸区
114.299932,30.583747,1955,武汉亿缘旅馆,江岸区
114.286679,30.622589,1956,武汉曼夏情侣主题艺术酒店,江岸区
114.299730,30.634023,1957,武汉入家旅馆,江岸区
114.286346,30.597323,1958,武汉英豪旅馆,江岸区
114.300710,30.640449,1959,武汉索屋轻奢艺术影院民宿,江岸区
114.290599,30.583522,1960,如家商旅酒店(武汉江汉路步行街地铁站店),江岸区
114.297174,30.576641,1961,武汉江滩好百年美仑国际酒店,江岸区
114.290422,30.624933,1962,维也纳酒店(武汉汉口火车站竹叶山地铁站店),江岸区
114.308188,30.600175,1963,武汉天地汉口江滩亚朵酒店,江岸区
114.299347,30.640475,1964,湖北1919酒店,江岸区
114.296387,30.578061,1965,6+1假日宾馆(洞庭街店),江岸区
114.331031,30.661769,1966,武汉天悦锦尚旅店,江岸区
114.321267,30.643300,1967,武汉东晟宾馆,江岸区
114.298674,30.582116,1968,武汉缺氧公寓,江岸区
114.311559,30.614379,1969,武汉城市优择公寓,江岸区
114.297419,30.587478,1970,武汉格林豪泰汉口兰陵路店,江岸区
114.301961,30.585861,1971,V+唯宜艺术江景酒店(武汉汉口江滩分店),江岸区
114.302410,30.648873,1972,武汉美如家时尚住宿,江岸区
114.298641,30.582238,1973,OYO金花之星酒店,江岸区
114.314415,30.639074,1974,乐乐住宿,江岸区
114.294222,30.654560,1975,E+电竞酒店(武汉市民之家地铁站店),江岸区
114.301178,30.640637,1976,武汉漫节奏酒店式公寓,江岸区
114.299652,30.581734,1977,武汉江岸荆楚宾馆,江岸区
114.294460,30.578824,1978,武汉黄汉假日旅馆,江岸区
114.287402,30.601960,1979,纽宾凯尚居酒店(武汉儿童医院香港路地铁站店),江岸区
114.277152,30.593843,1980,观湖珀金酒店,江岸区
114.292970,30.582790,1981,武汉丝路驿(江汉路吉庆街店),江岸区
114.27093,30.627341,1982,维也纳酒店(武汉汉口火车站兴业路石桥店),江岸区
114.301253,30.640782,1983,维也纳国际酒店(武汉后湖兴业路地铁站店),江岸区
114.286451,30.603074,1984,怡园宾馆(儿童医院),江岸区
114.302220,30.610298,1985,峡林酒店(武汉解放公园店),江岸区
114.293839,30.587224,1986,福临主题宾馆,江岸区
114.293229,30.585863,1987,艾克斯酒店(武汉江汉路步行街店),江岸区
114.301332,30.585625,1988,艺龙瑞云酒店(武汉汉口江滩店),江岸区
114.293438,30.656764,1989,武汉宜星轻奢艺术影院酒店,江岸区
114.286290,30.586951,1990,武汉红艳宾馆,江岸区
114.290718,30.583662,1991,新缘智能影院酒店,江岸区
114.299794,30.581577,1992,武汉弥想公寓(武汉长江隧道分店),江岸区
114.291261,30.586094,1993,丽枫酒店(武汉江汉路吉庆街店),江岸区
114.277091,30.593837,1994,武汉舍亲公寓,江岸区
114.290302,30.584341,1995,武汉建华宾馆,江岸区
114.300213,30.581955,1996,武汉柴琪公寓(3号店),江岸区
114.299820,30.581695,1997,荆楚旅馆(沿江大道),江岸区
114.294130,30.579224,1998,环球客青年公寓,江岸区
114.281149,30.651691,1999,伶里家艺术酒店,江岸区
114.296914,30.635812,2000,武汉康仕德精品酒店,江岸区
114.288327,30.586063,2001,快乐追风青年旅舍,江岸区
114.3009,30.585202,2002,兰陵梵舍酒店(武汉汉口江滩店),江岸区
114.290974,30.588791,2003,易捷优选连锁酒店(武汉大智路店),江岸区
114.295407,30.579815,2004,武汉茸述Studio公寓(上海路分店),江岸区
114.299011,30.590056,2005,武汉岳飞街5号公寓,江岸区
114.303546,30.638266,2006,武汉常来时尚宾馆,江岸区
114.304137,30.590078,2007,武汉禧朵儿·再续酒店,江岸区
114.296091,30.592675,2008,鑫盛商务宾馆(武汉大智路店),江岸区
114.297042,30.586190,2009,希恩电竞酒店(武汉大智路地铁站店),江岸区
114.290813,30.658036,2010,象宿艺术影院公寓(武汉市民之家绿地汉口中心店),江岸区
114.293114,30.580055,2011,武汉瑞园宾馆,江岸区
114.276885,30.598347,2012,武汉汉口金融中心漫心府,江岸区
114.300435,30.589980,2013,武汉九洲旅馆,江岸区
114.300939,30.595136,2014,星咖电竞酒店,江岸区
114.282146,30.651656,2015,武汉越秀公寓,江岸区
114.298212,30.586489,2016,77连锁酒店(武汉江汉路步行街店),江岸区
114.294754,30.592696,2017,戴丁连锁影院酒店(大智路轻轨站店),江岸区
114.294431,30.578614,2018,绿树电竞酒店,江岸区
114.278981,30.589533,2019,丽枫酒店(武汉江汉路循礼门地铁站店),江岸区
114.294169,30.579196,2020,武汉人在旅途青年旅舍,江岸区
114.287132,30.634743,2021,柏雅凯瑞精选酒店(武汉汉口火车站永旺店),江岸区
114.288283,30.587019,2022,爱华旅社,江岸区
114.315213,30.653606,2023,洪源连锁概念酒店(武汉汉口城市广场店),江岸区
114.294714,30.578687,2024,武汉钻石6+1假日宾馆,江岸区
114.285445,30.587317,2025,循礼汇嘉酒店(武汉循礼门地铁站店),江岸区
114.296163,30.577299,2026,武汉风貌安坻酒店,江岸区
114.292700,30.597516,2027,武汉红园宾馆,江岸区
114.295636,30.579704,2028,武汉遇见青年荟旅舍,江岸区
114.300877,30.640650,2029,优居酒店(武汉后湖大道东方广场店),江岸区
114.301121,30.640814,2030,武汉希呈·影院酒店,江岸区
114.317589,30.640740,2031,武汉太众时尚旅社,江岸区
114.273626,30.592954,2032,江城之星酒店(武汉新华路取水楼店),江岸区
114.276478,30.635850,2033,柏凌电竞酒店,江岸区
114.284686,30.602895,2034,兆瑞国际大酒店,江岸区
114.297149,30.586863,2035,武汉梵Room民宿,江岸区
114.302808,30.638644,2036,武汉盛世东方旅馆,江岸区
114.295409,30.579751,2037,CoCo青年公寓(汉口江滩店),江岸区
114.280891,30.649341,2038,武汉鱼乐电竞公寓,江岸区
114.277418,30.593845,2039,武汉For1studio公寓,江岸区
114.299788,30.581807,2040,荆楚宾馆(沿江大道),江岸区
114.275452,30.620307,2041,全季酒店(武汉汉口火车站唐家墩店),江岸区
114.275577,30.635448,2042,铂越酒店(武汉后湖大道店),江岸区
114.327873,30.654426,2043,紫梦圆宾馆,江岸区
114.289299,30.588242,2044,武汉武汉佳寓先生公寓,江岸区
114.300288,30.586188,2045,白玉兰酒店(武汉江滩黎黄陂路店),江岸区
114.295024,30.601435,2046,PDG境酒店,江岸区
114.284665,30.588235,2047,武汉金鹏旅社,江岸区
114.301511,30.591932,2048,武汉汉口江滩吉庆街锋态度酒店,江岸区
114.333323,30.650640,2049,武汉佳园招待所,江岸区
114.321947,30.632203,2050,武汉祥华旅馆,江岸区
114.303187,30.622638,2051,船家女客栈(武汉罗家庄地铁站店),江岸区
114.286566,30.622422,2052,丽枫酒店(武汉竹叶山地铁站店),江岸区
114.276812,30.596730,2053,嘉禾精选酒店(武汉取水楼地铁站店),江岸区
114.288062,30.584639,2054,武汉爱尚宾馆,江岸区
114.304899,30.605880,2055,初见公寓(武汉汉飞青年城店),江岸区
114.315332,30.639396,2056,武汉怡宁宾馆,江岸区
114.294065,30.589732,2057,武汉陈诚旅馆,江岸区
114.292731,30.585112,2058,武汉N9宾馆,江岸区
114.297617,30.578212,2059,武汉江涛旅馆,江岸区
114.292940,30.585603,2060,xyspace酒店(武汉江汉路吉庆街江滩店),江岸区
114.345264,30.664579,2061,武汉星七日酒店,江岸区
114.295508,30.579756,2062,武汉茸述设计酒店,江岸区
114.289799,30.597002,2063,TP电竞酒店(武汉香港路店),江岸区
114.288116,30.584654,2064,鑫泰宾馆,江岸区
114.299017,30.647179,2065,武汉金鼎轩宾馆,江岸区
114.276393,30.592662,2066,秋果酒店(武汉新华路协和医院店),江岸区
114.294888,30.589333,2067,武汉汉口江滩大智亘星酒店,江岸区
114.304956,30.640836,2068,金居缘旅社,江岸区
114.275263,30.592873,2069,丽枫酒店(武汉新华路取水楼店),江岸区
114.281357,30.651445,2070,武汉左伶右里酒店,江岸区
114.296334,30.594496,2071,喆啡酒店(武汉大智路地铁站店),江岸区
114.292403,30.603954,2072,武汉成兴宾馆,江岸区
114.286343,30.634791,2073,天鹅恋主题酒店(武汉金桥永旺店),江岸区
114.300646,30.617207,2074,雅斯特国际酒店(武汉黄浦大街赵家条地铁站店),江岸区
114.301465,30.588241,2075,武汉漫时光文园民宿,江岸区
114.287537,30.630538,2076,武汉BEST电竞公寓,江岸区
114.305332,30.640442,2077,晶升商务酒店(武汉兴业路地铁站店),江岸区
114.310847,30.615300,2078,维也纳国际酒店(长江二桥汉口江滩店),江岸区
114.294381,30.587239,2079,武汉谷曼精品酒店,江岸区
114.306065,30.608069,2080,武汉一家自助服务公寓,江岸区
114.326164,30.656211,2081,武汉榜漾酒店,江岸区
114.306934,30.630265,2082,宜尚酒店(黄浦路二七小路地铁站口店),江岸区
114.291266,30.582546,2083,武汉金波精品酒店,江岸区
114.296224,30.654145,2084,金桥宾馆,江岸区
114.281126,30.651673,2085,武汉江岸华美达酒店,江岸区
114.272205,30.628596,2086,全季酒店(武汉后湖兴业路店),江岸区
114.289074,30.585871,2087,武汉鑫成旅馆,江岸区
114.291630,30.618272,2088,武汉名仕快捷旅馆,江岸区
114.303393,30.589038,2089,武汉红盛宾馆,江岸区
114.289109,30.596436,2090,武汉美特斯精品酒店,江岸区
114.304054,30.590781,2091,江城明珠豪生大酒店,江岸区
114.267056,30.629086,2092,如家精选酒店(武汉机场二高速石桥地铁站店),江岸区
114.297511,30.580990,2093,武汉大华旅馆,江岸区
114.303249,30.651137,2094,后璞电竞酒店(武汉后湖店),江岸区
114.300422,30.614243,2095,宜尚酒店(武汉解放公园店),江岸区
114.302024,30.638203,2096,武汉友聚宾馆,江岸区
114.313487,30.638380,2097,双益宾馆,江岸区
114.313931,30.638874,2098,武汉仁和住宿,江岸区
114.301961,30.585899,2099,汲暮江景酒店(武汉汉口江滩店),江岸区
114.273865,30.635115,2100,丽枫酒店(武汉后湖大道兴业路店),江岸区
114.298240,30.586881,2101,橙谊连锁酒店(武汉江汉路步行街店),江岸区
114.302591,30.638525,2102,武汉福缘旅馆,江岸区
114.269208,30.635881,2103,京园宾馆,江岸区
114.283046,30.602612,2104,武汉香格里拉大酒店,江岸区
114.300339,30.585466,2105,舒雅旅馆(武汉兰陵路),江岸区
114.30185,30.586242,2106,武汉江滩世茂凡象酒店,江岸区
114.301953,30.591376,2107,武汉久久商务旅馆,江岸区
114.303938,30.595091,2108,武汉超强商务旅馆,江岸区
114.292927,30.651235,2109,武汉若阑亭酒店,江岸区
114.301835,30.585467,2110,武汉马哥孛罗酒店,江岸区
114.279142,30.596781,2111,新佳丽旅店,江岸区
114.294258,30.579492,2112,武汉邨墅.上海邨民国风情精品民宿,江岸区
114.302338,30.598746,2113,丹枫白露酒店,江岸区
114.289120,30.640034,2114,武汉金阳光出租屋,江岸区
114.292153,30.604257,2115,瑞祥宾馆(湖边坊店),江岸区
114.307816,30.644530,2116,晓悦酒店(武汉兴业路地铁站店),江岸区
114.326129,30.656073,2117,武汉菡美艺术公寓,江岸区
114.306571,30.644093,2118,枫尚酒店(武汉后湖店),江岸区
114.310088,30.624881,2119,武汉枫叶宾馆,江岸区
114.298728,30.593647,2120,武汉迪华宾馆,江岸区
114.291091,30.589801,2121,武汉鑫锐时尚旅馆,江岸区
114.276760,30.596681,2122,莫林精选酒店(武汉取水楼地铁站店),江岸区
114.292572,30.585604,2123,私享影视民宿,江岸区
114.315940,30.622417,2124,武汉沁心小雨公寓(解放大道分店),江岸区
114.302369,30.589470,2125,武汉路客精品民宿BB9950,江岸区
114.291745,30.583207,2126,武汉77连锁酒店(南京路店),江岸区
114.301448,30.594811,2127,武汉路客民宿BI9650,江岸区
114.332679,30.662046,2128,武汉静听细雨公寓(2号店),江岸区
114.294271,30.579382,2129,武汉结庐里公寓(前进五路店),江岸区
114.300120,30.613132,2130,云泰陆加壹酒店,江岸区
114.303591,30.599141,2131,武汉筑民宿汉口(麟趾路分店),江岸区
114.289509,30.585603,2132,武汉留宿民宿(南京路分店),江岸区
114.305675,30.607740,2133,武汉曼生活公寓(2号店),江岸区
114.326719,30.655439,2134,武汉辛夷坞的家公寓,江岸区
114.334923,30.655889,2135,兴源旅店(武汉新荣店),江岸区
114.292443,30.655260,2136,全季武汉市民之家酒店,江岸区
114.289475,30.585516,2137,武汉赵姨的家公寓(2号店),江岸区
114.293160,30.591095,2138,城市便捷酒店武汉大智路轻轨站店大堂,江岸区
114.289425,30.585534,2139,武汉超哥精品民宿(3号店),江岸区
114.306050,30.607801,2140,武汉叁舍民宿,江岸区
114.306115,30.607989,2141,武汉庄艳公寓,江岸区
114.277092,30.593836,2142,武汉安安22公寓,江岸区
114.301400,30.624596,2143,武汉澄迈养生温泉度假公寓(二七侧路店),江岸区
114.305854,30.608225,2144,武汉昕昕久居民宿,江岸区
114.306123,30.595451,2145,武汉花精灵-梦公寓(5号店),江岸区
114.294337,30.591248,2146,武汉肉哥公寓(2号店),江岸区
114.282297,30.652497,2147,武汉青颖居公寓,江岸区
114.300695,30.585348,2148,武汉Ace艾斯民宿,江岸区
114.306500,30.608622,2149,武汉风中的百合公寓(3号店),江岸区
114.302657,30.593000,2150,武汉李梦莉公寓,江岸区
114.290310,30.630943,2151,武汉路客BF2860精品民宿,江岸区
114.297139,30.585805,2152,武汉Rona公寓(合作路分店),江岸区
114.327633,30.655894,2153,武汉汐遇SeeYou民宿,江岸区
114.305383,30.651844,2154,武汉沐moon公寓(2号店),江岸区
114.306085,30.608073,2155,武汉炒栗子公寓,江岸区
114.297032,30.585858,2156,武汉Z小姐的洋房特色民宿,江岸区
114.298311,30.580156,2157,泰瑞快捷宾馆,江岸区
114.296139,30.592742,2158,星盛商务宾馆(大智路店),江岸区
114.281616,30.648413,2159,武汉朱良元幸福之家1413公寓,江岸区
114.297358,30.590537,2160,武汉留宿民宿(故居分店),江岸区
114.295616,30.601120,2161,武汉蛋壳蟹公寓(23号店),江岸区
114.311009,30.656600,2162,武汉Seven wang公寓(4号店),江岸区
114.293929,30.580811,2163,武汉留宿民宿,江岸区
114.303203,30.590002,2164,武汉H·HH民宿(洞庭街分店),江岸区
114.274560,30.592968,2165,武汉筑民宿汉口(台北一路分店),江岸区
114.300579,30.588803,2166,武汉筑民宿汉口(胜利街分店),江岸区
114.310350,30.601340,2167,武汉汉口江景民宿,江岸区
114.294968,30.592506,2168,武汉甜甜夹心的house公寓(京汉大道分店),江岸区
114.293939,30.580811,2169,武汉隱小影公寓(胜利街分店),江岸区
114.306724,30.615003,2170,武汉庄艳客栈(新建后街分店),江岸区
114.289187,30.583091,2171,武汉AI智能家居民宿,江岸区
114.300761,30.640441,2172,武汉Virgie公寓(兴业路分店),江岸区
114.308213,30.652709,2173,武汉彩虹屋公寓,江岸区
114.277142,30.593837,2174,武汉Marcia99公寓,江岸区
114.301078,30.600262,2175,武汉曼生活公寓(麟趾路分店),江岸区
114.289187,30.583091,2176,武汉Ssss公寓(吉庆街分店),江岸区
114.300761,30.640441,2177,武汉美美宿公寓,江岸区
114.302189,30.589525,2178,武汉徐小姐不在家公寓(车站路分店),江岸区
114.328827,30.638926,2179,武汉浮世绘日式民宿(解放大道分店),江岸区
114.306065,30.608169,2180,武汉暖暖的大白公寓,江岸区
114.306526,30.615049,2181,武汉李掰掰的民宿,江岸区
114.293351,30.592451,2182,武汉漫寓公寓(大智路分店),江岸区
114.302129,30.589523,2183,武汉嗖嗖民宿(车站路分店),江岸区
114.282505,30.598252,2184,武汉欧式公寓,江岸区
114.293939,30.580811,2185,武汉小庆公寓(胜利街分店),江岸区
114.293401,30.657810,2186,武汉汉堡包的仙女屋公寓(健康街分店),江岸区
114.277093,30.593836,2187,武汉房东妮蔻公寓,江岸区
114.277153,30.593843,2188,武汉铂金涵舍公寓,江岸区
114.298638,30.589919,2189,武汉筑民宿(岳飞街店),江岸区
114.300378,30.600312,2190,武汉路客民宿BI5040,江岸区
114.297151,30.587030,2191,武汉路客民宿BG1850,江岸区
114.305603,30.604416,2192,武汉路客精品民宿BE1920,江岸区
114.282306,30.598259,2193,武汉客居民宿127352,江岸区
114.295988,30.596419,2194,武汉路客民宿BI9640,江岸区
114.290089,30.586136,2195,武汉金鼎一号公寓(5号店),江岸区
114.289132,30.601122,2196,武汉民宿风大居室公寓,江岸区
114.306072,30.608164,2197,武汉武一公寓(芦沟桥路分店),江岸区
114.301352,30.585533,2198,武汉在造公寓(2号店),江岸区
114.276858,30.631060,2199,武汉美联温馨之家公寓,江岸区
114.295620,30.601067,2200,武汉蛋壳蟹公寓(24号店),江岸区
114.306065,30.608169,2201,武汉昔時民宿(解放大道分店),江岸区
114.300373,30.583326,2202,武汉H·HH民宿(合作路分店),江岸区
114.277256,30.619310,2203,武汉蹦猪小姐姐公寓(2号店),江岸区
114.277149,30.593843,2204,武汉城宿武汉三店公寓(云林街分店),江岸区
114.287798,30.622174,2205,武汉城宿武汉三店公寓(黄孝河路分店),江岸区
114.302199,30.589606,2206,武汉琉芸舍公寓(洞庭街店),江岸区
114.331007,30.661759,2207,武汉悠家武汉店10公寓,江岸区
114.267166,30.629610,2208,武汉九零后小姐姐公寓,江岸区
114.295618,30.601067,2209,武汉linjoy0506公寓(5号店),江岸区
114.306065,30.608170,2210,武汉曾涛公寓(3号店),江岸区
114.297799,30.588959,2211,武汉大侠管房2店公寓(中山大道分店),江岸区
114.297799,30.588959,2212,武汉isle民宿(3号店),江岸区
114.292785,30.582053,2213,武汉归宁阁民宿(扬子街分店),江岸区
114.302168,30.587400,2214,武汉清靡公寓,江岸区
114.300240,30.622508,2215,武汉宜家王姐姐民宿(二七侧路店),江岸区
114.333528,30.663211,2216,武汉领悟1990公寓(机电园路分店),江岸区
114.292705,30.595759,2217,武汉路客民宿BI9630,江岸区
114.293919,30.580811,2218,武汉Starryvilla公寓,江岸区
114.284238,30.588255,2219,武汉摄影师Lana公寓,江岸区
114.290523,30.584280,2220,武汉路客民宿BD6230,江岸区
114.289207,30.583140,2221,武汉夢遊少女公寓,江岸区
114.290633,30.643480,2222,武汉遇见.夏至公寓,江岸区
114.292491,30.588257,2223,武汉超哥精品民宿(25号店),江岸区
114.282147,30.651656,2224,武汉Ms Fang公寓,江岸区
114.288490,30.595307,2225,武汉风中的百合公寓,江岸区
114.292491,30.588257,2226,武汉超哥精品民宿(24号店),江岸区
114.267423,30.629756,2227,武汉路客民宿BG5070,江岸区
114.303311,30.635153,2228,武汉曾识公寓(2号店),江岸区
114.285270,30.655769,2229,武汉中华文化追随者公寓,江岸区
114.293456,30.579408,2230,武汉isle民宿,江岸区
114.300320,30.623952,2231,武汉非非公寓,江岸区
114.292492,30.588257,2232,武汉超哥精品民宿(26号店),江岸区
114.297421,30.586746,2233,武汉老胡同民宿(27号店),江岸区
114.296022,30.597970,2234,武汉無关风月公寓(4号店),江岸区
114.310079,30.601660,2235,武汉影·民宿,江岸区
114.278889,30.589383,2236,武汉大米爱家公寓,江岸区
114.299130,30.587040,2237,武汉isle民宿(4号店),江岸区
114.302908,30.591189,2238,武汉留宿民宿(新农村分店),江岸区
114.284716,30.593894,2239,武汉Nial公寓(台北路分店),江岸区
114.302068,30.590793,2240,武汉复古洋房特色民宿,江岸区
114.292981,30.579882,2241,武汉无心民宿,江岸区
114.295718,30.578287,2242,武汉知更智慧民宿(洞庭街分店),江岸区
114.277500,30.593925,2243,武汉Uuuushy公寓,江岸区
114.302299,30.589527,2244,武汉壹米民宿(2号店),江岸区
114.296296,30.594497,2245,武汉小九公寓(3号店),江岸区
114.310796,30.653372,2246,武汉度舍公寓(4号店),江岸区
114.289475,30.585516,2247,武汉赵姨的家公寓(4号店),江岸区
114.315643,30.653006,2248,武汉小熊猫的盛夏光年酒店式公寓,江岸区
114.287059,30.634640,2249,武汉多多幸福之家公寓(3号店),江岸区
114.306065,30.608169,2250,武汉觅家公寓(3号店),江岸区
114.301019,30.588856,2251,武汉归宁阁民宿(洞庭小路分店),江岸区
114.308341,30.652682,2252,武汉汉广公寓(2号店),江岸区
114.296306,30.594497,2253,武汉阿琦公寓(2号店),江岸区
114.285462,30.623344,2254,莫泰168武汉汉口发展大道竹叶山地铁站店大堂,江岸区
114.290977,30.583835,2255,OYO伊尔盼酒店(南京路店),江岸区
114.288346,30.601068,2256,武汉漫·寓公寓(宝岛公园分店),江岸区
114.295007,30.601553,2257,怡徕酒店(武汉澳门路儿童医院酒店),江岸区
114.309353,30.628344,2258,77连锁酒店(武汉二七金鑫店),江岸区
114.285404,30.623877,2259,艺龙快捷酒店,江岸区
114.297291,30.586683,2260,武汉老胡同民宿(2号店),江岸区
114.281234,30.649051,2261,武汉优间51塔子湖公寓,江岸区
114.289187,30.583091,2262,武汉小新君公寓(吉庆街分店),江岸区
114.294469,30.592662,2263,武汉无界限宿1988公寓(球场街分店),江岸区
114.306071,30.608164,2264,武汉布达佩斯复古民宿,江岸区
114.298378,30.590245,2265,武汉吃瓜瓜11公寓,江岸区
114.306115,30.607989,2266,武汉壹号一宿公寓,江岸区
114.298600,30.582146,2267,武汉澄澄公寓(江汉村分店),江岸区
114.293470,30.579598,2268,武汉知更智慧民宿(江汉路步行街分店),江岸区
114.313561,30.632406,2269,武汉嗖嗖民宿B,江岸区
114.276789,30.635296,2270,武汉夏俪心kealoer公寓(2号店),江岸区
114.302129,30.589617,2271,武汉汉口江滩/江汉路附近-3号公馆公寓,江岸区
114.293900,30.579400,2272,武汉路客精品民宿BI2170,江岸区
114.291175,30.621993,2273,武汉客居民宿127354,江岸区
114.300902,30.596487,2274,武汉路客民宿BH5420,江岸区
114.301428,30.594743,2275,武汉路客精品民宿BH0370,江岸区
114.299629,30.598799,2276,武汉硚口小霸王公寓(6号店),江岸区
114.305604,30.652052,2277,武汉刘小玲公寓(3号店),江岸区
114.306786,30.652133,2278,武汉丹妮的美美小屋,江岸区
114.289035,30.583487,2279,武汉玖玖民宿(吉庆街分店),江岸区
114.292709,30.595531,2280,武汉2046公寓,江岸区
114.295300,30.600991,2281,武汉蛋壳蟹公寓(3号店),江岸区
114.292774,30.595543,2282,武汉PaPa公寓4(苗栗路香港路口店),江岸区
114.292865,30.595825,2283,武汉自在民宿(8号店),江岸区
114.281616,30.648417,2284,武汉尚季公寓(5号店),江岸区
114.305890,30.607957,2285,武汉觅家公寓(7号店),江岸区
114.291226,30.588726,2286,武汉青隐趣公寓(京汉大道分店),江岸区
114.292835,30.595762,2287,武汉玩吧轰趴曾公寓(香港路分店),江岸区
114.296178,30.591554,2288,武汉青隐趣公寓(友益街分店),江岸区
114.289178,30.583074,2289,武汉全玉公寓(3号店),江岸区
114.297271,30.586807,2290,武汉鹿原威哥公寓(2号店),江岸区
114.295754,30.600999,2291,武汉医美老幺公寓,江岸区
114.302686,30.592877,2292,武汉澄·澄公寓(6号店),江岸区
114.286629,30.610949,2293,武汉L春霞公寓(黄孝河路分店),江岸区
114.306065,30.608170,2294,武汉小林H公寓(芦沟桥路分店),江岸区
114.292816,30.580602,2295,武汉play5033公寓(4号店),江岸区
114.292865,30.595732,2296,武汉途掌柜106692精品民宿,江岸区
114.292835,30.595429,2297,武汉途掌柜110422精品民宿,江岸区
114.285308,30.618580,2298,武汉李成成公寓(黄孝河路分店),江岸区
114.307112,30.652163,2299,武汉天朗公寓,江岸区
114.311030,30.656212,2300,武汉领悟1990公寓(后湖公园分店),江岸区
114.306065,30.608170,2301,武汉陌冷紫公寓(芦沟桥路分店),江岸区
114.300632,30.647038,2302,武汉晓听花落公寓(4号店),江岸区
114.296159,30.641852,2303,武汉武汉益寿延年酒店式公寓(后湖南路分店),江岸区
114.301463,30.588241,2304,武汉鹿原威哥特色民宿(3号店),江岸区
114.294373,30.588125,2305,武汉圆您梦干净温暖舒适之家公寓,江岸区
114.282466,30.651759,2306,武汉一朝一夕艺术民宿,江岸区
114.289381,30.583048,2307,武汉小墨鱼公寓(大智街道分店),江岸区
114.289830,30.596250,2308,武汉蘑菇窝公寓(20号店),江岸区
114.302684,30.592876,2309,武汉百变OSCAR公寓,江岸区
114.277195,30.593897,2310,武汉在江边公寓,江岸区
114.297083,30.595704,2311,武汉达达姐公寓,江岸区
114.297398,30.586886,2312,武汉刘承亮公寓(2号店),江岸区
114.295599,30.601310,2313,武汉蛋壳蟹公寓(2号店),江岸区
